都道府県名,警察署名称,交番・駐在所頭名,交番・駐在所頭名（フリガナ）,交番・駐在所の別,名称,【名称】○○警察署＋■■交番、△△駐在所,電話番号,郵便番号,郡,市区町村,全国地方公共団体コード,全体表記,町又は大字以降,LocName,Longitude,Latitude,isTrustful,iLvl
北海道,中央警察署,薄野,ススキノ,交番,薄野交番,中央警察署薄野交番,011-511-5583,640804,,札幌市中央区,11011,札幌市中央区南4条西3,南4条西3,北海道/札幌市/中央区/南四条/西三丁目,141.35413,43.05561,5,6
北海道,中央警察署,豊平橋,トヨヒラバシ,交番,豊平橋交番,中央警察署豊平橋交番,011-521-6465,600055,,札幌市中央区,11011,札幌市中央区南5条東4,南5条東4,北海道/札幌市/中央区/南五条/東四丁目,141.36308,43.05624,5,6
北海道,中央警察署,南三条,ミナミサンジョウ,交番,南三条交番,中央警察署南三条交番,011-221-0761,600063,,札幌市中央区,11011,札幌市中央区南3条西7,南3条西7,北海道/札幌市/中央区/南三条/西七丁目,141.34758,43.05595,5,6
北海道,中央警察署,大通,オオドオリ,交番,大通交番,中央警察署大通交番,011-221-1078,600042,,札幌市中央区,11011,札幌市中央区大通西1,大通西1,北海道/札幌市/中央区/大通西/一丁目,141.35637,43.06102,5,6
北海道,中央警察署,札幌駅前,サッポロエキマエ,交番,札幌駅前交番,中央警察署札幌駅前交番,011-231-5584,600005,,札幌市中央区,11011,札幌市中央区北5条西4-４,北5条西4-４,北海道/札幌市/中央区/北五条/西四丁目/４番地,141.34959,43.06727,5,7
北海道,中央警察署,北一条東,キタイチジョウヒガシ,交番,北一条東交番,中央警察署北一条東交番,011-251-5060,600031,,札幌市中央区,11011,札幌市中央区北1条東7,北1条東7,北海道/札幌市/中央区/北一条/東七丁目,141.36688,43.06475,5,6
北海道,中央警察署,御幸,ミユキ,交番,御幸交番,中央警察署御幸交番,011-251-8354,600063,,札幌市中央区,11011,札幌市中央区南3条西14,南3条西14,北海道/札幌市/中央区/南三条/西十四丁目,141.33551,43.05465,5,6
北海道,中央警察署,北一条西,キタイチジョウニシ,交番,北一条西交番,中央警察署北一条西交番,011-621-8223,600001,,札幌市中央区,11011,札幌市中央区北1条西15,北1条西15,北海道/札幌市/中央区/北一条/西十五丁目,141.33371,43.05991,5,6
北海道,中央警察署,桑園西,ソウエンニシ,交番,桑園西交番,中央警察署桑園西交番,011-611-1866,600004,,札幌市中央区,11011,札幌市中央区北4条西19,北4条西19,北海道/札幌市/中央区/北四条/西十九丁目,141.32649,43.06287,5,6
北海道,東警察署,北十三条,キタジュウサンジョウ,交番,北十三条交番,東警察署北十三条交番,011-731-6655,650013,,札幌市東区,11037,札幌市東区北13条東1-3-7,北13条東1-3-7,北海道/札幌市/東区/北十三条/東一丁目/３番,141.35394,43.07769,5,7
北海道,東警察署,北十二条東,キタジュウニジョウヒガシ,交番,北十二条東交番,東警察署北十二条東交番,011-731-9830,650012,,札幌市東区,11037,札幌市東区北12条東11-1-12,北12条東11-1-12,北海道/札幌市/東区/北十二条/東十一丁目/１番,141.36923,43.07817,5,7
北海道,東警察署,元町,モトマチ,交番,元町交番,東警察署元町交番,011-781-4221,650024,,札幌市東区,11037,札幌市東区北24条東18-4-39,北24条東18-4-39,北海道/札幌市/東区/北二十四条/東十八丁目/４番,141.37794,43.09517,5,7
北海道,東警察署,北二十六条,キタニジュウロクジョウ,交番,北二十六条交番,東警察署北二十六条交番,011-711-3787,650026,,札幌市東区,11037,札幌市東区北26条東6,北26条東6,北海道/札幌市/東区/北二十六条/東六丁目,141.35767,43.09517,5,6
北海道,東警察署,栄東,サカエヒガシ,交番,栄東交番,東警察署栄東交番,011-704-5392,70841,,札幌市東区,11037,札幌市東区北41条東14-2-16,北41条東14-2-16,北海道/札幌市/東区/北四十一条/東十四丁目/２番,141.36438,43.11232,5,7
北海道,東警察署,栄西,サカエニシ,交番,栄西交番,東警察署栄西交番,011-731-9611,70842,,札幌市東区,11037,札幌市東区北42条東4-1-35,北42条東4-1-35,北海道/札幌市/東区/北四十二条/東四丁目/１番,141.35034,43.11122,5,7
北海道,東警察署,札苗,サツナエ,交番,札苗交番,東警察署札苗交番,011-791-1141,70808,,札幌市東区,11037,札幌市東区東苗穂8条3-3-17,東苗穂8条3-3-17,北海道/札幌市/東区/東苗穂八条/三丁目/３番,141.41560,43.09660,5,7
北海道,東警察署,丘珠,オカダマ,交番,丘珠交番,東警察署丘珠交番,011-781-6215,70835,,札幌市東区,11037,札幌市東区北35条東26-3-17,北35条東26-3-17,北海道/札幌市/東区/北三十五条/東二十六丁目/３番,141.38750,43.10280,5,7
北海道,東警察署,東苗穂,ヒガシナエボ,交番,東苗穂交番,東警察署東苗穂交番,011-781-6198,70801,,札幌市東区,11037,札幌市東区東苗穂1条3-3-54,東苗穂1条3-3-54,北海道/札幌市/東区/東苗穂一条/三丁目/３番,141.40190,43.07901,5,7
北海道,東警察署,苗穂,ナエボ,交番,苗穂交番,東警察署苗穂交番,011-741-0048,650006,,札幌市東区,11037,札幌市東区北6条東19-1-35,北6条東19-1-35,北海道/札幌市/東区/北六条/東十九丁目/１番,141.38409,43.07594,5,7
北海道,西警察署,円山,マルヤマ,交番,円山交番,西警察署円山交番,011-611-0677,640822,,札幌市中央区,11011,札幌市中央区北2条西24-26-4,北2条西24-26-4,北海道/札幌市/中央区/北二条/西二十四丁目,141.32022,43.05958,5,6
北海道,西警察署,宮の森,ミヤノモリ,交番,宮の森交番,西警察署宮の森交番,011-611-0687,640952,,札幌市中央区,11011,札幌市中央区宮の森2条11-1-1,宮の森2条11-1-1,北海道/札幌市/中央区/宮の森二条/十一丁目/１番,141.30283,43.05643,5,7
北海道,西警察署,琴似本通,コトニホンドオリ,交番,琴似本通交番,西警察署琴似本通交番,011-621-1263,630003,,札幌市西区,11070,札幌市西区山の手3条1-3-26,山の手3条1-3-26,北海道/札幌市/西区/山の手三条/一丁目/３番,141.29884,43.07299,5,7
北海道,西警察署,二十四軒,ニジュウヨンケン,交番,二十四軒交番,西警察署二十四軒交番,011-621-2006,630802,,札幌市西区,11070,札幌市西区二十四軒2条3-2-26,二十四軒2条3-2-26,北海道/札幌市/西区/二十四軒二条/三丁目/２番,141.31294,43.07385,5,7
北海道,西警察署,琴似駅前,コトニエキマエ,交番,琴似駅前交番,西警察署琴似駅前交番,011-611-1766,630861,,札幌市西区,11070,札幌市西区八軒1条東1-5-8,八軒1条東1-5-8,北海道/札幌市/西区/八軒一条/東一丁目/５番,141.31010,43.08204,5,7
北海道,西警察署,八軒,ハチケン,交番,八軒交番,西警察署八軒交番,011-642-4621,630846,,札幌市西区,11070,札幌市西区八軒6条西6-1-1,八軒6条西6-1-1,北海道/札幌市/西区/八軒六条/西六丁目/１番,141.30792,43.09190,5,7
北海道,西警察署,発寒,ハッサム,交番,発寒交番,西警察署発寒交番,011-661-1811,630830,,札幌市西区,11070,札幌市西区発寒10条3-1-39,発寒10条3-1-39,北海道/札幌市/西区/発寒十条/三丁目/１番,141.29507,43.09022,5,7
北海道,西警察署,鉄工団地,テッコウダンチ,交番,鉄工団地交番,西警察署鉄工団地交番,011-663-1102,630833,,札幌市西区,11070,札幌市西区発寒13条5-2-39,発寒13条5-2-39,北海道/札幌市/西区/発寒十三条/五丁目/２番,141.28949,43.10006,5,7
北海道,西警察署,西町,ニシマチ,交番,西町交番,西警察署西町交番,011-661-0813,630061,,札幌市西区,11070,札幌市西区西町北6-1-8,西町北6-1-8,北海道/札幌市/西区/西町北/六丁目/１番,141.28937,43.07932,5,7
北海道,西警察署,西野,ニシノ,交番,西野交番,西警察署西野交番,011-662-1526,630039,,札幌市西区,11070,札幌市西区西野9条4-6-37,西野9条4-6-37,北海道/札幌市/西区/西野九条/四丁目/６番,141.26553,43.06239,5,7
北海道,南警察署,南九条,ミナミ9ジョウ,交番,南九条交番,南警察署南九条交番,011-511-1062,640809,,札幌市中央区,11011,札幌市中央区南9西7,南9西7,北海道/札幌市/中央区/南九西七丁目,141.34900,43.04797,5,0
北海道,南警察署,中島,ナカジマ,交番,中島交番,南警察署中島交番,011-531-2022,640809,,札幌市中央区,11011,札幌市中央区中島公園1-25,中島公園1-25,北海道/札幌市/中央区/中島公園/１番,141.35170,43.04519,5,7
北海道,南警察署,幌西,コウサイ,交番,幌西交番,南警察署幌西交番,011-561-3520,640811,,札幌市中央区,11011,札幌市中央区南11西15,南11西15,北海道/札幌市/中央区/南十一西一丁目,141.35742,43.04584,4,0
北海道,南警察署,伏見,フシミ,交番,伏見交番,南警察署伏見交番,011-551-5474,640915,,札幌市中央区,11011,札幌市中央区南15西18,南15西18,北海道/札幌市/中央区/南十五西一丁目,141.35681,43.04057,4,0
北海道,南警察署,山鼻,ヤマハナ,交番,山鼻交番,南警察署山鼻交番,011-511-5979,640923,,札幌市中央区,11011,札幌市中央区南23西10,南23西10,北海道/札幌市/中央区/南二十三西十丁目,141.34589,43.02884,5,0
北海道,南警察署,行啓通,ギョウケイドオリ,交番,行啓通交番,南警察署行啓通交番,011-511-1774,640914,,札幌市中央区,11011,札幌市中央区南14西10,南14西10,北海道/札幌市/中央区/南十四西十丁目,141.34431,43.04101,5,0
北海道,南警察署,真駒内,マコマナイ,交番,真駒内交番,南警察署真駒内交番,011-581-2360,50018,,札幌市南区,11061,札幌市南区真駒内曙町1,真駒内曙町1,北海道/札幌市/南区/真駒内曙町/一丁目,141.35078,43.00230,5,6
北海道,南警察署,真駒内団地,マコマナイダンチ,交番,真駒内団地交番,南警察署真駒内団地交番,011-581-4661,50014,,札幌市南区,11061,札幌市南区真駒内幸町2,真駒内幸町2,北海道/札幌市/南区/真駒内幸町/二丁目,141.35423,42.99007,5,6
北海道,南警察署,澄川,スミカワ,交番,澄川交番,南警察署澄川交番,011-831-3815,50004,,札幌市南区,11061,札幌市南区澄川4-4,澄川4-4,北海道/札幌市/南区/澄川四条/四丁目,141.36784,43.01229,5,6
北海道,南警察署,藤野,フジノ,交番,藤野交番,南警察署藤野交番,011-591-2188,612282,,札幌市南区,11061,札幌市南区藤野2-6-5-2,藤野2-6-5-2,北海道/札幌市/南区/藤野二条/六丁目/５番,141.29601,42.96199,5,7
北海道,南警察署,石山,イシヤマ,交番,石山交番,南警察署石山交番,011-591-8351,50841,,札幌市南区,11061,札幌市南区石山1-3-1-1,石山1-3-1-1,北海道/札幌市/南区/石山一条/三丁目/１番,141.33611,42.96926,5,7
北海道,南警察署,北ノ沢,キタノサワ,交番,北ノ沢交番,南警察署北ノ沢交番,011-571-9520,50802,,札幌市南区,11061,札幌市南区川沿2-5,川沿2-5,北海道/札幌市/南区/川沿二条/五丁目,141.32491,42.99892,5,6
北海道,南警察署,藻南,モナミ,交番,藻南交番,南警察署藻南交番,011-571-6134,50809,,札幌市南区,11061,札幌市南区川沿9-1,川沿9-1,北海道/札幌市/南区/川沿九条/一丁目,141.33543,42.98553,5,6
北海道,南警察署,定山渓,ジョウザンケイ,交番,定山渓交番,南警察署定山渓交番,011-598-2151,612302,,札幌市南区,11061,札幌市南区定山渓温泉東3,定山渓温泉東3,北海道/札幌市/南区/定山渓温泉東/三丁目,141.16701,42.96585,5,6
北海道,北警察署,札幌駅北口,サッポロエキキタグチ,交番,札幌駅北口交番,北警察署札幌駅北口交番,011-736-9820,600807,,札幌市北区,11029,札幌市北区北7条西3,北7条西3,北海道/札幌市/北区/北七条/西三丁目,141.35056,43.06971,5,6
北海道,北警察署,北二十条,キタニジュウジョウ,交番,北二十条交番,北警察署北二十条交番,011-746-4361,10020,,札幌市北区,11029,札幌市北区北20条西5-2-45,北20条西5-2-45,北海道/札幌市/北区/北二十条/西五丁目/２番,141.34311,43.08519,5,7
北海道,北警察署,麻生,アサブ,交番,麻生交番,北警察署麻生交番,011-758-7521,10039,,札幌市北区,11029,札幌市北区北39条西5-335-5,北39条西5-335-5,北海道/札幌市/北区/北三十九条/西五丁目,141.33768,43.10722,5,6
北海道,北警察署,北三十条,キタサンジュウジョウ,交番,北三十条交番,北警察署北三十条交番,011-716-3784,10030,,札幌市北区,11029,札幌市北区北30条西7,北30条西7,北海道/札幌市/北区/北三十条/西七丁目,141.33749,43.09630,5,6
北海道,北警察署,新川,シンカワ,交番,新川交番,北警察署新川交番,011-756-4176,10026,,札幌市北区,11029,札幌市北区北26条西17-196-1,北26条西17-196-1,北海道/札幌市/北区/北二十六条/西十七丁目,141.32314,43.09489,5,6
北海道,北警察署,新琴似,シンコトニ,交番,新琴似交番,北警察署新琴似交番,011-761-4567,10907,,札幌市北区,11029,札幌市北区新琴似8条4-670-1,新琴似8条4-670-1,北海道/札幌市/北区/新琴似八条/四丁目,141.33046,43.11448,5,6
北海道,北警察署,新琴似西,シンコトニニシ,交番,新琴似西交番,北警察署新琴似西交番,011-763-1101,10907,,札幌市北区,11029,札幌市北区新琴似7条14-743-23,新琴似7条14-743-23,北海道/札幌市/北区/新琴似七条/十四丁目,141.31207,43.12236,5,6
北海道,北警察署,新光,シンコウ,交番,新光交番,北警察署新光交番,011-762-9442,10901,,札幌市北区,11029,札幌市北区新琴似1条12-6-43,新琴似1条12-6-43,北海道/札幌市/北区/新琴似一条/十二丁目/６番,141.30846,43.11183,5,7
北海道,北警察署,篠路,シノロ,交番,篠路交番,北警察署篠路交番,011-771-2018,28024,,札幌市北区,11029,札幌市北区篠路4条7-2-47,篠路4条7-2-47,北海道/札幌市/北区/篠路四条/七丁目/２番,141.36514,43.14584,5,7
北海道,北警察署,あいの里,アイノサト,交番,あいの里交番,北警察署あいの里交番,011-778-5420,28071,,札幌市北区,11029,札幌市北区あいの里1条6-1-3,あいの里1条6-1-3,北海道/札幌市/北区/あいの里一条/六丁目/１番,141.40099,43.15551,5,7
北海道,北警察署,茨??戸,バラト,交番,茨??戸交番,北警察署茨??戸交番,011-771-0100,28043,,札幌市北区,11029,札幌市北区東茨戸46-2,東茨戸46-2,北海道/札幌市/北区/東茨戸/４６番地,141.35995,43.16203,5,7
北海道,北警察署,屯田,トンデン,交番,屯田交番,北警察署屯田交番,011-771-2727,20854,,札幌市北区,11029,札幌市北区屯田4条３ー159,屯田4条３ー159,北海道/札幌市/北区/屯田四条/三丁目,141.33820,43.12849,5,6
北海道,北警察署,太平,タイヘイ,交番,太平交番,北警察署太平交番,011-771-4888,28009,,札幌市北区,11029,札幌市北区太平9条5-84,太平9条5-84,北海道/札幌市/北区/太平九条/五丁目,141.35652,43.13399,5,6
北海道,北警察署,花川南,ハナカワミナミ,交番,花川南交番,北警察署花川南交番,0133-73-0110,613205,,石狩市,12351,石狩市花川南5条2-193,花川南5条2-193,北海道/石狩市/花川南五条/二丁目/１９３番地,141.29211,43.14822,5,7
北海道,北警察署,花川北,ハナカワキタ,交番,花川北交番,北警察署花川北交番,0133-74-5092,613213,,石狩市,12351,石狩市花川北3条2-198-2,花川北3条2-198-2,北海道/石狩市/花川北三条/二丁目/１９８番地,141.30872,43.16447,5,7
北海道,北警察署,当別,トウベツ,交番,当別交番,北警察署当別交番,0133-23-2151,610223,石狩郡,当別町,13030,当別町弥生53-43,弥生53-43,北海道/石狩郡/当別町/弥生/５３番地,141.51472,43.22007,5,7
北海道,北警察署,太美,フトミ,交番,太美交番,北警察署太美交番,0133-26-2151,613776,石狩郡,当別町,13030,当別町太美町1483,太美町1483,北海道/石狩郡/当別町/太美町/１４８３番地,141.44308,43.18956,5,7
北海道,白石警察署,東札幌,ヒガシサッポロ,交番,東札幌交番,白石警察署東札幌交番,011-841-0892,30044,,札幌市白石区,11045,札幌市白石区東札幌4条3,東札幌4条3,北海道/札幌市/白石区/東札幌四条/三丁目,141.38954,43.05179,5,6
北海道,白石警察署,菊水,キクスイ,交番,菊水交番,白石警察署菊水交番,011-811-2414,30803,,札幌市白石区,11045,札幌市白石区菊水3条1-4-20,菊水3条1-4-20,北海道/札幌市/白石区/菊水三条/一丁目/４番,141.37044,43.05938,5,7
北海道,白石警察署,東橋,アズマバシ,交番,東橋交番,白石警察署東橋交番,011-821-5360,30811,,札幌市白石区,11045,札幌市白石区菊水上町1条3-52,菊水上町1条3-52,北海道/札幌市/白石区/菊水上町一条/三丁目/５２番地,141.38687,43.06213,5,7
北海道,白石警察署,南郷,ナンゴウ,交番,南郷交番,白石警察署南郷交番,011-864-3984,30022,,札幌市白石区,11045,札幌市白石区南郷通6-南1,南郷通6-南1,北海道/札幌市/白石区/南郷通六丁目北,141.40936,43.04206,5,5
北海道,白石警察署,白石中央,シロイシチュウオウ,交番,白石中央交番,白石警察署白石中央交番,011-861-4009,30027,,札幌市白石区,11045,札幌市白石区本通2-北7,本通2-北7,北海道/札幌市/白石区/本通二丁目南,141.40549,43.05008,5,5
北海道,白石警察署,東白石,ヒガシシロイシ,交番,東白石交番,白石警察署東白石交番,011-861-2970,30026,,札幌市白石区,11045,札幌市白石区本通16-南4-19,本通16-南4-19,北海道/札幌市/白石区/本通十六丁目北,141.43338,43.03778,5,5
北海道,白石警察署,北郷,キタゴウ,交番,北郷交番,白石警察署北郷交番,011-873-2971,30833,,札幌市白石区,11045,札幌市白石区北郷3条5-3-13,北郷3条5-3-13,北海道/札幌市/白石区/北郷三条/五丁目/３番,141.41817,43.05804,5,7
北海道,白石警察署,北都,ホクト,交番,北都交番,白石警察署北都交番,011-871-0793,30834,,札幌市白石区,11045,札幌市白石区北郷4条13-3-12,北郷4条13-3-12,北海道/札幌市/白石区/北郷四条/十三丁目/３番,141.44048,43.05283,5,7
北海道,白石警察署,菊水元町,キクスイモトマチ,交番,菊水元町交番,白石警察署菊水元町交番,011-871-0110,30828,,札幌市白石区,11045,札幌市白石区菊水元町8条2-17-1,菊水元町8条2-17-1,北海道/札幌市/白石区/菊水元町八条/二丁目/１７番,141.41231,43.07337,5,7
北海道,豊平警察署,旭,アサヒ,交番,旭交番,豊平警察署旭交番,011-811-1747,620902,,札幌市豊平区,11053,札幌市豊平区豊平8条8-2,豊平8条8-2,北海道/札幌市/豊平区/豊平八条/八丁目/２番,141.37022,43.04436,5,7
北海道,豊平警察署,豊平,トヨヒラ,交番,豊平交番,豊平警察署豊平交番,011-841-1019,620903,,札幌市豊平区,11053,札幌市豊平区豊平3条7-2,豊平3条7-2,北海道/札幌市/豊平区/豊平三条/七丁目/２番,141.37485,43.05001,5,7
北海道,豊平警察署,美園,ミソノ,交番,美園交番,豊平警察署美園交番,011-841-1029,620003,,札幌市豊平区,11053,札幌市豊平区美園3条4,美園3条4,北海道/札幌市/豊平区/美園三条/四丁目,141.38661,43.04208,5,6
北海道,豊平警察署,平岸,ヒラギシ,交番,平岸交番,豊平警察署平岸交番,011-821-0472,620933,,札幌市豊平区,11053,札幌市豊平区平岸3条7,平岸3条7,北海道/札幌市/豊平区/平岸三条/七丁目,141.37128,43.03519,5,6
北海道,豊平警察署,中の島,ナカノシマ,交番,中の島交番,豊平警察署中の島交番,011-811-4454,620921,,札幌市豊平区,11053,札幌市豊平区中の島1条4,中の島1条4,北海道/札幌市/豊平区/中の島一条/四丁目,141.35831,43.03336,5,6
北海道,豊平警察署,南平岸,ミナミヒラギシ,交番,南平岸交番,豊平警察署南平岸交番,011-821-0039,620933,,札幌市豊平区,11053,札幌市豊平区平岸3条13,平岸3条13,北海道/札幌市/豊平区/平岸三条/十三丁目,141.36972,43.02719,5,6
北海道,豊平警察署,東月寒,ヒガシツキサム,交番,東月寒交番,豊平警察署東月寒交番,011-851-8061,620053,,札幌市豊平区,11053,札幌市豊平区月寒東3条17-231-44,月寒東3条17-231-44,北海道/札幌市/豊平区/月寒東三条/十七丁目,141.42099,43.02166,5,6
北海道,豊平警察署,月寒,ツキサム,交番,月寒交番,豊平警察署月寒交番,011-851-1026,620020,,札幌市豊平区,11053,札幌市豊平区月寒中央通7,月寒中央通7,北海道/札幌市/豊平区/月寒中央通/七丁目,141.39613,43.03077,5,6
北海道,豊平警察署,福住,フクズミ,交番,福住交番,豊平警察署福住交番,011-856-0110,620042,,札幌市豊平区,11053,札幌市豊平区福住2条5-4-6,福住2条5-4-6,北海道/札幌市/豊平区/福住二条/五丁目/４番,141.39870,43.01430,5,7
北海道,豊平警察署,西岡,ニシオカ,交番,西岡交番,豊平警察署西岡交番,011-853-3484,620034,,札幌市豊平区,11053,札幌市豊平区西岡4条9-1-16,西岡4条9-318,北海道/札幌市/豊平区/西岡四条/九丁目/１番,141.38573,43.00440,5,7
北海道,豊平警察署,中央通,チュウオウドオリ,交番,中央通交番,豊平警察署中央通交番,011-882-7140,40871,,札幌市清田区,11100,札幌市清田区平岡1条5-4-3,平岡1条5-4-3,北海道/札幌市/清田区/平岡一条/五丁目/４番,141.45148,42.99084,5,7
北海道,豊平警察署,緑ケ丘,ミドリガオカ,交番,緑ケ丘交番,豊平警察署緑ケ丘交番,011-883-4600,40805,,札幌市清田区,11100,札幌市清田区里塚緑ケ丘1-14-26,里塚緑ケ丘1-14-26,北海道/札幌市/清田区/里塚緑ケ丘/一丁目/１４番,141.47195,43.00150,5,7
北海道,豊平警察署,美しが丘,ウツクシガオカ,交番,美しが丘交番,豊平警察署美しが丘交番,011-881-0110,40813,,札幌市清田区,11100,札幌市清田区美しが丘3条4-1-33,美しが丘3条4-1-33,北海道/札幌市/清田区/美しが丘三条/四丁目/１番,141.45276,42.98239,5,7
北海道,豊平警察署,北野,キタノ,交番,北野交番,豊平警察署北野交番,011-881-3583,40864,,札幌市清田区,11100,札幌市清田区北野4条5-4-60,北野4条5-4-60,北海道/札幌市/清田区/北野四条/五丁目/４番,141.44754,43.01223,5,7
北海道,豊平警察署,清田,キヨタ,交番,清田交番,豊平警察署清田交番,011-881-2151,40841,,札幌市清田区,11100,札幌市清田区清田1条4-3-1,清田1条4-3-1,北海道/札幌市/清田区/清田一条/四丁目/３番,141.44057,43.00109,5,7
北海道,厚別警察署,ひばりが丘,ヒバリガオカ,交番,ひばりが丘交番,厚別警察署ひばりが丘交番,011-891-2840,40052,,札幌市厚別区,11088,札幌市厚別区厚別中央2条2-1-30,厚別中央2条2-1-30,北海道/札幌市/厚別区/厚別中央二条/二丁目/１番,141.45856,43.03323,5,7
北海道,厚別警察署,信濃,シナノ,交番,信濃交番,厚別警察署信濃交番,011-891-1527,40055,,札幌市厚別区,11088,札幌市厚別区厚別中央5条2-5-12,厚別中央5条2-5-12,北海道/札幌市/厚別区/厚別中央五条/二丁目/５番,141.46129,43.04257,5,7
北海道,厚別警察署,森林公園,シンリンコウエン,交番,森林公園交番,厚別警察署森林公園交番,011-894-5110,40074,,札幌市厚別区,11088,札幌市厚別区厚別北4条4-16,厚別北4条4-16,北海道/札幌市/厚別区/厚別北四条/四丁目/１６番,141.47687,43.06054,5,7
北海道,厚別警察署,新札幌,シンサッポロ,交番,新札幌交番,厚別警察署新札幌交番,011-891-0632,40051,,札幌市厚別区,11088,札幌市厚別区厚別中央1条5-2,厚別中央1条5-2,北海道/札幌市/厚別区/厚別中央一条/五丁目/２番,141.47266,43.03616,5,7
北海道,厚別警察署,上野幌,カミノッポロ,交番,上野幌交番,厚別警察署上野幌交番,011-893-5633,40031,,札幌市厚別区,11088,札幌市厚別区上野幌1条2-6-25,上野幌1条2-6-25,北海道/札幌市/厚別区/上野幌一条/二丁目/６番,141.47006,43.01948,5,7
北海道,厚別警察署,もみじ台,モミジダイ,交番,もみじ台交番,厚別警察署もみじ台交番,011-897-7567,40013,,札幌市厚別区,11088,札幌市厚別区もみじ台西4-2,もみじ台西4-2,北海道/札幌市/厚別区/もみじ台西/四丁目/２番,141.48854,43.03354,5,7
北海道,厚別警察署,北広島,キタヒロシマ,交番,北広島交番,厚別警察署北広島交番,011-372-3151,611121,,北広島市,12343,北広島市中央1-2-1,中央1-2-1,北海道/北広島市/中央/一丁目/２番,141.56483,42.98790,5,7
北海道,厚別警察署,北広島駅前,キタヒロシマエキマエ,交番,北広島駅前交番,厚別警察署北広島駅前交番,011-373-6495,611132,,北広島市,12343,北広島市北進町1-2ー13,北進町1-2ー13,北海道/北広島市/北進町/一丁目/２番,141.56218,42.98042,5,7
北海道,厚別警察署,大曲,オオマガリ,交番,大曲交番,厚別警察署大曲交番,011-377-3047,611271,,北広島市,12343,北広島市大曲中央２-4-2,大曲中央２-4-2,北海道/北広島市/大曲中央/二丁目/４番,141.47955,42.97173,5,7
北海道,手稲警察署,手稲,テイネ,交番,手稲交番,手稲警察署手稲交番,011-681-2151,60023,,札幌市手稲区,11096,札幌市手稲区手稲本町3条1-1-16,手稲本町3条1-1-16,北海道/札幌市/手稲区/手稲本町三条/一丁目/１番,141.24411,43.11489,5,7
北海道,手稲警察署,前田,マエダ,交番,前田交番,手稲警察署前田交番,011-682-1488,60815,,札幌市手稲区,11096,札幌市手稲区前田5条15-8-13,前田5条15-8-13,北海道/札幌市/手稲区/前田五条/十五丁目/８番,141.24416,43.13068,5,7
北海道,手稲警察署,手稲山口,テイネヤマグチ,交番,手稲山口交番,手稲警察署手稲山口交番,011-682-3713,60861,,札幌市手稲区,11096,札幌市手稲区明日風1-1-16,明日風1-1-16,北海道/札幌市/手稲区/明日風/一丁目/１番,141.23500,43.13931,5,7
北海道,手稲警察署,西宮の沢,ニシミヤノサワ,交番,西宮の沢交番,手稲警察署西宮の沢交番,011-661-4411,60004,,札幌市手稲区,11096,札幌市手稲区西宮の沢4条2-200-1,西宮の沢4条2-200-1,北海道/札幌市/手稲区/西宮の沢四条/二丁目,141.26016,43.09794,5,6
北海道,手稲警察署,稲積,イナヅミ,交番,稲積交番,手稲警察署稲積交番,011-694-3471,60805,,札幌市手稲区,11096,札幌市手稲区新発寒5条6-2-8,新発寒5条6-2-8,北海道/札幌市/手稲区/新発寒五条/六丁目/２番,141.26837,43.11681,5,7
北海道,手稲警察署,稲穂,イナホ,交番,稲穂交番,手稲警察署稲穂交番,011-682-1488,60033,,札幌市手稲区,11096,札幌市手稲区稲穂3条7-6-10,稲穂3条7-6-10,北海道/札幌市/手稲区/稲穂三条/七丁目/６番,141.21207,43.12830,5,7
北海道,手稲警察署,星置,ホシオキ,交番,星置交番,手稲警察署星置交番,011-694-0110,60851,,札幌市手稲区,11096,札幌市手稲区星置1条4-7-1,星置1条4-7-1,北海道/札幌市/手稲区/星置一条/四丁目/７番,141.20915,43.13374,5,7
北海道,江別警察署,駅前,エキマエ,交番,駅前交番,江別警察署駅前交番,011-382-2110,670012,,江別市,12173,江別市2条6-6-1,2条6-6-1,北海道/江別市/二条/六丁目/６番地,141.55751,43.11097,5,7
北海道,江別警察署,朝日,アサヒ,交番,朝日交番,江別警察署朝日交番,011-384-0066,670024,,江別市,12173,江別市朝日町8-４,朝日町8-４,北海道/江別市/朝日町/８番,141.57393,43.10669,5,7
北海道,江別警察署,野幌,ノッポロ,交番,野幌交番,江別警察署野幌交番,011-382-3449,690813,,江別市,12173,江別市野幌町82-2,野幌町82-2,北海道/江別市/野幌町/８２番,141.52151,43.09202,5,7
北海道,江別警察署,東野幌,ヒガシノッポロ,交番,東野幌交番,江別警察署東野幌交番,011-384-0004,690824,,江別市,12173,江別市東野幌本町７-1,東野幌本町７-1,北海道/江別市/東野幌本町/７番,141.53050,43.09074,5,7
北海道,江別警察署,大麻,オオアサ,交番,大麻交番,江別警察署大麻交番,011-386-8994,690854,,江別市,12173,江別市大麻中町26,大麻中町26,北海道/江別市/大麻中町/２６番,141.49370,43.07494,5,7
北海道,江別警察署,文京台,ブンキョウダイ,交番,文京台交番,江別警察署文京台交番,011-387-1866,690833,,江別市,12173,江別市文京台27-4,文京台27-4,北海道/江別市/文京台/２７番,141.49113,43.06762,5,7
北海道,千歳警察署,駅前,エキマエ,交番,駅前交番,千歳警察署駅前交番,0123-23-3252,660062,,千歳市,12246,千歳市千代田町7-101-19,千代田町7-101-19,北海道/千歳市/千代田町/七丁目/１０１番地,141.65070,42.82843,5,7
北海道,千歳警察署,新富,シントミ,交番,新富交番,千歳警察署新富交番,0123-23-4551,660037,,千歳市,12246,千歳市信濃2-33-3,信濃2-33-3,北海道/千歳市/信濃/二丁目/３３番,141.62929,42.83668,5,7
北海道,千歳警察署,住吉,スミヨシ,交番,住吉交番,千歳警察署住吉交番,0123-42-5450,660026,,千歳市,12246,千歳市住吉1-8-11,住吉1-8-11,北海道/千歳市/住吉/一丁目/８番,141.66200,42.83364,5,7
北海道,千歳警察署,本町,ホンチョウ,交番,本町交番,千歳警察署本町交番,0123-23-3253,660047,,千歳市,12246,千歳市本町4-7-13,本町4-7-13,北海道/千歳市/本町/四丁目/７番地,141.64815,42.81664,5,7
北海道,千歳警察署,向陽台,コウヨウダイ,交番,向陽台交番,千歳警察署向陽台交番,0123-28-1470,660055,,千歳市,12246,千歳市里美2-17-1,里美2-17-1,北海道/千歳市/里美/二丁目/１７番,141.60104,42.78540,5,7
北海道,千歳警察署,恵庭,エニワ,交番,恵庭交番,千歳警察署恵庭交番,0123-32-2028,611431,,恵庭市,12319,恵庭市有明町5-1-7,有明町5-1-7,北海道/恵庭市/有明町/五丁目/１番,141.57321,42.88816,5,7
北海道,千歳警察署,恵庭駅前,エニワエキマエ,交番,恵庭駅前交番,千歳警察署恵庭駅前交番,0123-33-1710,611448,,恵庭市,12319,恵庭市相生町1-1-7,相生町1-1-7,北海道/恵庭市/相生町/一丁目/１番,141.58600,42.88306,5,7
北海道,千歳警察署,恵み野,メグミノ,交番,恵み野交番,千歳警察署恵み野交番,0123-36-3132,611373,,恵庭市,12319,恵庭市恵み野西1-23-6,恵み野西1-23-6,北海道/恵庭市/恵み野西/一丁目/２３番,141.57886,42.90281,5,7
北海道,岩見沢警察署,駅前,エキマエ,交番,駅前交番,岩見沢警察署駅前交番,0126-22-0507,680021,,岩見沢市,12106,岩見沢市1条西5-8-3,1条西5-8-3,北海道/岩見沢市/一条/西五丁目/８番地,141.76073,43.20333,5,7
北海道,岩見沢警察署,東光,トウコウ,交番,東光交番,岩見沢警察署東光交番,0126-22-5028,680005,,岩見沢市,12106,岩見沢市5条東13-9-16,5条東13-9-16,北海道/岩見沢市/五条/東十三丁目/９番地,141.78123,43.21012,5,7
北海道,岩見沢警察署,美園,ミソノ,交番,美園交番,岩見沢警察署美園交番,0126-24-1338,680815,,岩見沢市,12106,岩見沢市美園5条4-2-1,美園5条4-2-1,北海道/岩見沢市/美園五条/四丁目/２番,141.76456,43.18672,5,7
北海道,栗山警察署,駅前,エキマエ,交番,駅前交番,栗山警察署駅前交番,0123-72-0068,691511,夕張郡,栗山町,14290,栗山町中央2-59-1,中央2-59-1,北海道/夕張郡/栗山町/中央/二丁目/５９番地,141.77686,43.05874,5,7
北海道,栗山警察署,長沼,ナガヌマ,交番,長沼交番,栗山警察署長沼交番,0123-88-2340,691334,夕張郡,長沼町,14281,長沼町錦町北1-2-18,錦町北1-2-18,北海道/夕張郡/長沼町/錦町北/一丁目/２番,141.69127,43.01182,5,7
北海道,栗山警察署,若菜,ワカナ,交番,若菜交番,栗山警察署若菜交番,0123-56-5218,680425,,夕張市,12092,夕張市若菜10-28,若菜10-28,北海道/夕張市/若菜/１０番地,141.97124,43.02641,5,7
北海道,栗山警察署,清水沢,シミズサワ,交番,清水沢交番,栗山警察署清水沢交番,0123-59-7819,680531,,夕張市,12092,夕張市清水沢2-52,清水沢2-52,北海道/夕張市/清水沢/二丁目,142.00891,43.01231,5,6
北海道,美唄警察署,駅前,エキマエ,交番,駅前交番,美唄警察署駅前交番,0126-63-3123,720012,,美唄市,12157,美唄市東１条南2-3-2,東１条南2-3-2,北海道/美唄市/東一条/南二丁目/３番,141.86150,43.33024,5,7
北海道,滝川警察署,駅前,エキマエ,交番,駅前交番,滝川警察署駅前交番,0125-23-3379,730031,,滝川市,12254,滝川市栄町2-9-17,栄町2-9-17,北海道/滝川市/栄町/二丁目/９番,141.90324,43.55465,5,7
北海道,滝川警察署,明神,ミョウジン,交番,明神交番,滝川警察署明神交番,0125-24-6089,730032,,滝川市,12254,滝川市明神町2-1-22,明神町2-1-22,北海道/滝川市/明神町/二丁目/１番,141.90790,43.55436,5,7
北海道,滝川警察署,黄金町,コガネマチ,交番,黄金町交番,滝川警察署黄金町交番,0125-23-2344,730012,,滝川市,12254,滝川市黄金町東1-1-1,黄金町東1-1-1,北海道/滝川市/黄金町東/一丁目/１番,141.91649,43.57282,5,7
北海道,滝川警察署,砂川駅前,スナガワエキマエ,交番,砂川駅前交番,滝川警察署砂川駅前交番,0125-52-3426,730152,,砂川市,12262,砂川市東2条北2-1-21,東2条北2-1-21,北海道/砂川市/東二条/北二丁目/１番,141.90881,43.49242,5,7
北海道,滝川警察署,奈井江,ナイエ,交番,奈井江交番,滝川警察署奈井江交番,0125-65-2109,790300,空知郡,奈井江町,14249,奈井江町字奈井江227-19,字奈井江227-19,北海道/空知郡/奈井江町/奈井江,141.89264,43.44224,5,5
北海道,赤歌警察署,歌志内,ウタシナイ,交番,歌志内交番,赤歌警察署歌志内交番,0125-42-3227,730402,,歌志内市,12271,歌志内市字東光1-2,字東光1-2,北海道/歌志内市/東光/１番地,142.04523,43.52005,5,7
北海道,小樽警察署,小樽駅前,オタルエキマエ,交番,小樽駅前交番,小樽警察署小樽駅前交番,0134-24-0590,470032,,小樽市,12033,小樽市稲穂2-22-14,稲穂2-22-14,北海道/小樽市/稲穂/二丁目/２２番,140.99416,43.19736,5,7
北海道,小樽警察署,手宮,テミヤ,交番,手宮交番,小樽警察署手宮交番,0134-23-9244,470041,,小樽市,12033,小樽市手宮1-3-1,手宮1-3-1,北海道/小樽市/手宮/一丁目/３番,141.00020,43.21140,5,7
北海道,小樽警察署,長橋,ナガハシ,交番,長橋交番,小樽警察署長橋交番,0134-25-3292,470036,,小樽市,12033,小樽市長橋3-1-1,長橋3-1-1,北海道/小樽市/長橋/三丁目/１番,140.97932,43.20781,5,7
北海道,小樽警察署,花園,ハナゾノ,交番,花園交番,小樽警察署花園交番,0134-24-0591,470024,,小樽市,12033,小樽市花園3-1-1,花園3-1-1,北海道/小樽市/花園/三丁目/１番,141.00153,43.19115,5,7
北海道,小樽警察署,最上,モガミ,交番,最上交番,小樽警察署最上交番,0134-23-8712,470023,,小樽市,12033,小樽市最上1-1-1,最上1-1-1,北海道/小樽市/最上/一丁目/１番,140.98682,43.18399,5,7
北海道,小樽警察署,築港,チッコウ,交番,築港交番,小樽警察署築港交番,0134-23-7409,470008,,小樽市,12033,小樽市築港1-3,築港1-3,北海道/小樽市/築港/１番,141.02559,43.18125,5,7
北海道,小樽警察署,若松,ワカマツ,交番,若松交番,小樽警察署若松交番,0134-23-9245,470017,,小樽市,12033,小樽市若松1-9-9,若松1-9-9,北海道/小樽市/若松/一丁目/９番,141.00693,43.18296,5,7
北海道,小樽警察署,朝里,アサリ,交番,朝里交番,小樽警察署朝里交番,0134-54-8018,470152,,小樽市,12033,小樽市新光1-8-13,新光1-8-13,北海道/小樽市/新光/一丁目/８番,141.05621,43.17604,5,7
北海道,小樽警察署,桜,サクラ,交番,桜交番,小樽警察署桜交番,0134-54-8852,470156,,小樽市,12033,小樽市桜2-24-13,桜2-24-13,北海道/小樽市/桜/二丁目/２４番,141.03549,43.17416,5,7
北海道,小樽警察署,銭函,ゼニバコ,交番,銭函交番,小樽警察署銭函交番,0134-62-2303,470263,,小樽市,12033,小樽市見晴町8-3,見晴町8-3,北海道/小樽市/見晴町/８番,141.16170,43.13850,5,7
北海道,余市警察署,駅前,エキマエ,交番,駅前交番,余市警察署駅前交番,0135-23-2414,460003,余市郡,余市町,14087,余市町黒川町5-43-8,黒川町5-43-8,北海道/余市郡/余市町/黒川町/五丁目/４３番地,140.79462,43.18840,5,7
北海道,倶知安警察署,駅前,エキマエ,交番,駅前交番,倶知安警察署駅前交番,0136-22-0231,440053,虻田郡,倶知安町,14001,倶知安町北3条西4-3-5,北3条西4-3-5,北海道/虻田郡/倶知安町/北三条/西四丁目/３番地,140.74597,42.90281,5,7
北海道,岩内警察署,マリンプラザ,マリンプラザ,交番,マリンプラザ交番,岩内警察署マリンプラザ交番,0135-62-0186,450003,岩内郡,岩内町,14028,岩内町字万代48-6,字万代48-6,北海道/岩内郡/岩内町/万代/４８番地,140.51591,42.98296,5,7
北海道,伊達警察署,駅前,エキマエ,交番,駅前交番,伊達警察署駅前交番,0142-23-3179,520032,,伊達市,12335,伊達市山下町340-3,山下町340-3,北海道/伊達市/山下町/３４０番地,140.85590,42.46954,5,7
北海道,伊達警察署,歴史の杜,レキシノモリ,交番,歴史の杜,伊達警察署歴史の杜交番,0142-25-2519,520022,,伊達市,12335,伊達市松ヶ枝町34-1,松ヶ枝町34-1,北海道/伊達市/松ヶ枝町/３４番地,140.87595,42.47135,5,7
北海道,伊達警察署,虻田,アブタ,交番,虻田交番,伊達警察署虻田交番,0142-76-2110,495603,虻田郡,洞爺湖町,15849,洞爺湖町入江44-1,入江44-1,北海道/虻田郡/洞爺湖町/入江/４４番地,140.77348,42.53967,5,7
北海道,伊達警察署,洞爺湖温泉,トウヤコオンセン,交番,洞爺湖温泉交番,伊達警察署洞爺湖温泉交番,0142-75-2027,495721,虻田郡,洞爺湖町,15849,洞爺湖町洞爺湖温泉142-151,洞爺湖温泉142-151,北海道/虻田郡/洞爺湖町/洞爺湖温泉/１４２番地,140.81343,42.56184,5,7
北海道,室蘭警察署,室蘭駅前,ムロランエキマエ,交番,室蘭駅前交番,室蘭警察署室蘭駅前交番,0143-22-4753,510022,,室蘭市,12050,室蘭市海岸町1-1-13,海岸町1-1-13,北海道/室蘭市/海岸町/一丁目/１番,140.97275,42.31924,5,7
北海道,室蘭警察署,母恋,ボコイ,交番,母恋交番,室蘭警察署母恋交番,0143-22-9694,510003,,室蘭市,12050,室蘭市母恋南町2-1-1,母恋南町2-1-1,北海道/室蘭市/母恋南町/二丁目/１番,140.99211,42.31261,5,7
北海道,室蘭警察署,東町,ヒガシマチ,交番,東町交番,室蘭警察署東町交番,0143-44-4042,500083,,室蘭市,12050,室蘭市東町3-23-7,東町3-23-7,北海道/室蘭市/東町/三丁目/２３番,141.02885,42.34434,5,7
北海道,室蘭警察署,輪西,ワニシ,交番,輪西交番,室蘭警察署輪西交番,0143-44-3725,500085,,室蘭市,12050,室蘭市輪西町1-30-2,輪西町1-30-2,北海道/室蘭市/輪西町/一丁目/３０番,141.00961,42.33467,5,7
北海道,室蘭警察署,中島,ナカジマ,交番,中島交番,室蘭警察署中島交番,0143-44-5319,500075,,室蘭市,12050,室蘭市中島本町1-5-4,中島本町1-5-4,北海道/室蘭市/中島本町/一丁目/５番,141.01175,42.35453,5,7
北海道,室蘭警察署,高砂,タカサゴ,交番,高砂交番,室蘭警察署高砂交番,0143-44-6852,500072,,室蘭市,12050,室蘭市高砂町1-19-1,高砂町1-19-1,北海道/室蘭市/高砂町/一丁目/１９番,141.03481,42.36050,5,7
北海道,室蘭警察署,本輪西,モトワニシ,交番,本輪西交番,室蘭警察署本輪西交番,0143-55-8309,500065,,室蘭市,12050,室蘭市本輪西町2-5-20,本輪西町2-5-20,北海道/室蘭市/本輪西町/二丁目/５番,140.97989,42.36224,5,7
北海道,室蘭警察署,白鳥台,ハクチョウダイ,交番,白鳥台交番,室蘭警察署白鳥台交番,0143-59-2554,500054,,室蘭市,12050,室蘭市白鳥台5-19-16,白鳥台5-19-16,北海道/室蘭市/白鳥台/五丁目/１９番,140.94179,42.37901,5,7
北海道,室蘭警察署,登別,ノボリベツ,交番,登別交番,室蘭警察署登別交番,0143-85-2136,590023,,登別市,12301,登別市桜木町1-20-6,桜木町1-20-6,北海道/登別市/桜木町/一丁目/２０番地,141.09735,42.40218,5,7
北海道,室蘭警察署,新生,シンセイ,交番,新生交番,室蘭警察署新生交番,0143-87-0550,590032,,登別市,12301,登別市新生町4-12-5,新生町4-12-5,北海道/登別市/新生町/四丁目/１２番,141.06541,42.37922,5,7
北海道,室蘭警察署,登別温泉,ノボリベツオンセン,交番,登別温泉交番,室蘭警察署登別温泉交番,0143-84-2310,590551,,登別市,12301,登別市登別温泉町92-1,登別温泉町92-1,北海道/登別市/登別温泉町/９２番地,141.14194,42.49526,5,7
北海道,室蘭警察署,登別東,ノボリベツヒガシ,交番,登別東交番,室蘭警察署登別東交番,0143-83-1110,590464,,登別市,12301,登別市登別東町2-22-1,登別東町2-22-1,北海道/登別市/登別東町/二丁目/２２番地,141.17734,42.45328,5,7
北海道,苫小牧警察署,美園,ミソノ,交番,美園交番,苫小牧警察署美園交番,0144-32-3957,530041,,苫小牧市,12131,苫小牧市美園町1-4-3,美園町1-4-3,北海道/苫小牧市/美園町/一丁目/４番,141.61766,42.65855,5,7
北海道,苫小牧警察署,駅前,エキマエ,交番,駅前交番,苫小牧警察署駅前交番,0144-32-2424,530022,,苫小牧市,12131,苫小牧市表町6-4-1,表町6-4-1,北海道/苫小牧市/表町/六丁目/４番,141.59689,42.64009,5,7
北海道,苫小牧警察署,本町,ホンチョウ,交番,本町交番,苫小牧警察署本町交番,0144-32-3543,530025,,苫小牧市,12131,苫小牧市本町1-1-13,本町1-1-13,北海道/苫小牧市/本町/一丁目/１番,141.59523,42.62978,5,7
北海道,苫小牧警察署,双葉,フタバ,交番,双葉交番,苫小牧警察署双葉交番,0144-34-2217,530045,,苫小牧市,12131,苫小牧市双葉町2-1-8,双葉町2-1-8,北海道/苫小牧市/双葉町/二丁目/１番,141.61221,42.64810,5,7
北海道,苫小牧警察署,木場,キバ,交番,木場交番,苫小牧警察署木場交番,0144-36-8295,530033,,苫小牧市,12131,苫小牧市木場町2-9-29,木場町2-9-29,北海道/苫小牧市/木場町/二丁目/９番,141.59831,42.64562,5,7
北海道,苫小牧警察署,糸井,イトイ,交番,糸井交番,苫小牧警察署糸井交番,0144-72-2989,530821,,苫小牧市,12131,苫小牧市しらかば町5-6-19,しらかば町5-6-19,北海道/苫小牧市/しらかば町/五丁目/６番,141.53943,42.62591,5,7
北海道,苫小牧警察署,弥生,ヤヨイ,交番,弥生交番,苫小牧警察署弥生交番,0144-74-4539,530802,,苫小牧市,12131,苫小牧市弥生町2-2-7,弥生町2-2-7,北海道/苫小牧市/弥生町/二丁目/２番,141.58058,42.62702,5,7
北海道,苫小牧警察署,山手,ヤマテ,交番,山手交番,苫小牧警察署山手交番,0144-74-4058,530852,,苫小牧市,12131,苫小牧市北光町2-15-12,北光町2-15-12,北海道/苫小牧市/北光町/二丁目/１５番,141.57462,42.63646,5,7
北海道,苫小牧警察署,錦岡,ニシキオカ,交番,錦岡交番,苫小牧警察署錦岡交番,0144-67-0031,591263,,苫小牧市,12131,苫小牧市青雲町1-22-7,青雲町1-22-7,北海道/苫小牧市/青雲町/一丁目/２２番,141.49490,42.61166,5,7
北海道,苫小牧警察署,沼ノ端北,ヌマノハタキタ,交番,沼ノ端北交番,苫小牧警察署沼ノ端北交番,0144-57-1070,591304,,苫小牧市,12131,苫小牧市北栄町3-3-1,北栄町3-3-1,北海道/苫小牧市/北栄町/三丁目,141.68671,42.67702,5,6
北海道,苫小牧警察署,沼ノ端,ヌマノハタ,交番,沼ノ端交番,苫小牧警察署沼ノ端交番,0144-55-0402,591305,,苫小牧市,12131,苫小牧市沼ノ端中央3-2-8,沼ノ端中央3-2-8,北海道/苫小牧市/沼ノ端中央/三丁目/２番,141.69722,42.66960,5,7
北海道,苫小牧警察署,鵡川,ムカワ,交番,鵡川交番,苫小牧警察署鵡川交番,0145-42-2042,540022,勇払郡,むかわ町,15865,むかわ町花園3-21,花園3-21,北海道/勇払郡/むかわ町/花園/三丁目/２１番地,141.93042,42.57609,5,7
北海道,苫小牧警察署,白老,シラオイ,交番,白老交番,苫小牧警察署白老交番,0144-82-2029,590904,白老郡,白老町,15784,白老町東町1-4-18,東町1-4-18,北海道/白老郡/白老町/東町/一丁目/４番,141.36432,42.55702,5,7
北海道,苫小牧警察署,萩野,ハギノ,交番,萩野交番,苫小牧警察署萩野交番,0144-83-2326,590922,白老郡,白老町,15784,白老町字萩野77-15,字萩野77-15,北海道/白老郡/白老町/萩野/７７番地,141.29919,42.51594,5,7
北海道,門別警察署,富川,トミカワ,交番,富川交番,門別警察署富川交番,01456-2-0002,550006,沙流郡,日高町,16012,日高町富川南2-1-5,富川南2-1-5,北海道/沙流郡/日高町/富川南/二丁目/１番地,142.02657,42.51951,5,7
北海道,静内警察署,駅前,エキマエ,交番,駅前交番,静内警察署駅前交番,0146-42-0042,560016,日高郡,新ひだか町,16365,新ひだか町静内本町5-1-13,新ひだか町静内本町5-1-13,北海道/日高郡/新ひだか町/静内本町/五丁目/１番,142.36076,42.33690,5,7
北海道,浦河警察署,堺町,サカイマチ,交番,堺町交番,浦河警察署堺町交番,0146-22-3369,570033,浦河郡,浦河町,16071,浦河町堺町東1-5-24,堺町東1-5-24,北海道/浦河郡/浦河町/堺町東/一丁目/５番,142.76065,42.17576,5,7
北海道,函館中央警察署,本町,ホンチョウ,交番,本町交番,函館中央警察署本町交番,0138-52-7770,400011,,函館市,12025,函館市本町7-20,本町7-20,北海道/函館市/本町/７番,140.75024,41.78967,5,7
北海道,函館中央警察署,新川,シンカワ,交番,新川交番,函館中央警察署新川交番,0138-52-3671,400025,,函館市,12025,函館市堀川町6-1,堀川町6-1,北海道/函館市/堀川町/６番,140.74097,41.77844,5,7
北海道,函館中央警察署,杉並,スギナミ,交番,杉並交番,函館中央警察署杉並交番,0138-52-4884,400004,,函館市,12025,函館市杉並町23-10,杉並町23-10,北海道/函館市/杉並町/２３番,140.75737,41.78677,5,7
北海道,函館中央警察署,人見,ヒトミ,交番,人見交番,函館中央警察署人見交番,0138-53-2267,400005,,函館市,12025,函館市人見町17-16,人見町17-16,北海道/函館市/人見町/１７番,140.75999,41.78114,5,7
北海道,函館中央警察署,東山,ヒガシヤマ,交番,東山交番,函館中央警察署東山交番,0138-51-3511,410835,,函館市,12025,函館市東山2-1-25,東山2-1-25,北海道/函館市/東山/二丁目/１番,140.77403,41.80483,5,7
北海道,函館中央警察署,湯川,ユノカワ,交番,湯川交番,函館中央警察署湯川交番,0138-57-0869,420932,,函館市,12025,函館市湯川町1-32-3,湯川町1-32-3,北海道/函館市/湯川町/一丁目/３２番,140.78377,41.78241,5,7
北海道,函館中央警察署,日吉,ヒヨシ,交番,日吉交番,函館中央警察署日吉交番,0138-52-1911,410841,,函館市,12025,函館市日吉町1-24-2,日吉町1-24-2,北海道/函館市/日吉町/一丁目/２４番,140.78627,41.79080,5,7
北海道,函館中央警察署,駒場,コマバ,交番,駒場交番,函館中央警察署駒場交番,0138-53-2265,420935,,函館市,12025,函館市駒場町12-2,駒場町12-2,北海道/函館市/駒場町/１２番,140.77557,41.78144,5,7
北海道,函館中央警察署,美原,ミハラ,交番,美原交番,函館中央警察署美原交番,0138-46-3004,410806,,函館市,12025,函館市美原2-82-6,美原2-82-6,北海道/函館市/美原/二丁目,140.75873,41.81830,5,6
北海道,函館中央警察署,昭和,ショウワ,交番,昭和交番,函館中央警察署昭和交番,0138-43-9151,410812,,函館市,12025,函館市昭和4-27-20,昭和4-27-20,北海道/函館市/昭和/四丁目/２７番,140.73335,41.81622,5,7
北海道,函館中央警察署,富岡,トミオカ,交番,富岡交番,函館中央警察署富岡交番,0138-42-2073,410811,,函館市,12025,函館市富岡町1-44-7,富岡町1-44-7,北海道/函館市/富岡町/一丁目/４４番,140.74487,41.80777,5,7
北海道,函館中央警察署,桔梗,キキョウ,交番,桔梗交番,函館中央警察署桔梗交番,0138-46-2029,410808,,函館市,12025,函館市桔梗1-7-11,桔梗1-7-11,北海道/函館市/桔梗/一丁目/７番,140.72945,41.83296,5,7
北海道,函館中央警察署,七飯,ナナエ,交番,七飯交番,函館中央警察署七飯交番,0138-65-2017,411111,亀田郡,七飯町,13374,七飯町本町6-2-13,本町6-2-13,北海道/亀田郡/七飯町/本町/六丁目/２番,140.69145,41.89693,5,7
北海道,函館中央警察署,北斗,ホクト,交番,北斗交番,函館中央警察署北斗交番,0138-73-2075,490161,,北斗市,12360,北斗市飯生2-1-9,飯生2-1-9,北海道/北斗市/飯生/二丁目/１番,140.64337,41.81839,5,7
北海道,函館中央警察署,七重浜,ナナエハマ,交番,七重浜交番,函館中央警察署七重浜交番,0138-49-2926,490111,,北斗市,12360,北斗市七重浜1-14-19,七重浜1-14-19,北海道/北斗市/七重浜/一丁目/１４番,140.70471,41.81547,5,7
北海道,函館中央警察署,大野,オオノ,交番,大野交番,函館中央警察署大野交番,0138-77-8110,411201,,北斗市,12360,北斗市本町1-5-7,本町1-5-7,北海道/北斗市/本町/一丁目/５番,140.64354,41.88408,5,7
北海道,函館西警察署,大森,オオモリ,交番,大森交番,函館西警察署大森交番,0138-22-2407,400034,,函館市,12025,函館市大森町28－17,大森町28－17,北海道/函館市/大森町/２８番,140.73524,41.77142,5,7
北海道,函館西警察署,函館駅前,ハコダテエキマエ,交番,函館駅前交番,函館西警察署函館駅前交番,0138-22-2407,400034,,函館市,12025,函館市若松町15－8,若松町15－8,北海道/函館市/若松町/１５番,140.72745,41.77234,5,7
北海道,函館西警察署,万代,バンダイ,交番,万代交番,函館西警察署万代交番,0138-22-4736,400063,,函館市,12025,函館市万代町5－11,万代町5－11,北海道/函館市/万代町/５番,140.73152,41.78776,5,7
北海道,函館西警察署,港,ミナト,交番,港交番,函館西警察署港交番,0138-42-3661,410821,,函館市,12025,函館市港町14－13,港町14－13,北海道/函館市/港町,140.72527,41.80217,5,5
北海道,函館西警察署,亀田,カメダ,交番,亀田交番,函館西警察署亀田交番,0138-42-7784,400072,,函館市,12025,函館市亀田町17－25,亀田町17－25,北海道/函館市/亀田町/１７番,140.73436,41.79646,5,7
北海道,函館西警察署,十字街,ジュウジガイ,交番,十字街交番,函館西警察署十字街交番,0138-22-5977,400065,,函館市,12025,函館市豊川町7－31,豊川町7－31,北海道/函館市/豊川町/７番,140.71989,41.76494,5,7
北海道,函館西警察署,青柳,アオヤギ,交番,青柳交番,函館西警察署青柳交番,0138-22-8414,400044,,函館市,12025,函館市青柳町21－2,青柳町21－2,北海道/函館市/青柳町/２１番,140.71849,41.75697,5,7
北海道,八雲警察署,長万部,オシャマンベ,交番,長万部交番,八雲警察署長万部交番,01377-2-2312,493521,山越郡,長万部町,13471,長万部町字長万部183-2,字長万部183-2,北海道/山越郡/長万部町/長万部/１８３番地,140.38008,42.51791,5,7
北海道,松前警察署,福島,フクシマ,交番,福島交番,松前警察署福島交番,0139-47-2042,491331,松前郡,福島町,13323,福島町字三岳39-5,字三岳39-5,北海道/松前郡/福島町/三岳,140.25348,41.50829,5,5
北海道,せたな警察署,今金,イマカネ,交番,今金交番,せたな警察署今金交番,0137-82-0435,494308,瀬棚郡,今金町,13706,今金町字今金118-3,字今金118-3,北海道/瀬棚郡/今金町/今金/１１８番地,140.01714,42.42865,5,7
北海道,旭川中央警察署,駅前,エキマエ,交番,駅前交番,旭川中央警察署駅前交番,0166-23-3058,700030,,旭川市,12041,旭川市宮下通8-2-1,宮下通8-2-1,北海道/旭川市/宮下通/八丁目/２番,142.35886,43.76392,5,7
北海道,旭川中央警察署,中央,チュウオウ,交番,中央交番,旭川中央警察署中央交番,0166-23-2764,700035,,旭川市,12041,旭川市5条通4-893-4,5条通4-893-4,北海道/旭川市/五条通/四丁目/８９３番地,142.35646,43.77179,5,7
北海道,旭川中央警察署,七条通,ナナジョウドオリ,交番,七条通交番,旭川中央警察署七条通交番,0166-23-3775,700037,,旭川市,12041,旭川市7条通17-83,7条通17-83,北海道/旭川市/七条通/十七丁目/８３番地,142.37698,43.76774,5,7
北海道,旭川中央警察署,四条西,ヨンジョウニシ,交番,四条西交番,旭川中央警察署四条西交番,0166-22-6919,700054,,旭川市,12041,旭川市4条西5-2-4,4条西5-2-4,北海道/旭川市/四条/西五丁目/２番,142.34393,43.77414,5,7
北海道,旭川中央警察署,神居,カムイ,交番,神居交番,旭川中央警察署神居交番,0166-61-1524,708012,,旭川市,12041,旭川市神居2条6-103-4,神居2条6-103-4,北海道/旭川市/神居二条/六丁目,142.33359,43.76412,5,6
北海道,旭川中央警察署,忠和,チュウワ,交番,忠和交番,旭川中央警察署忠和交番,0166-62-7006,708047,,旭川市,12041,旭川市忠和7条5-1-6,忠和7条5-1-6,北海道/旭川市/忠和七条/五丁目/１番,142.31671,43.77225,5,7
北海道,旭川中央警察署,春光,シュンコウ,交番,春光交番,旭川中央警察署春光交番,0166-51-6456,700871,,旭川市,12041,旭川市春光1条8-12-47,春光1条8-12-47,北海道/旭川市/春光一条/八丁目/１２番,142.37906,43.79956,5,7
北海道,旭川中央警察署,末広,スエヒロ,交番,末広交番,旭川中央警察署末広交番,0166-51-7005,718135,,旭川市,12041,旭川市末広5条4-8-19,末広5条4-8-19,北海道/旭川市/末広五条/四丁目/８番,142.37859,43.81239,5,7
北海道,旭川中央警察署,春光台,シュンコウダイ,交番,春光台交番,旭川中央警察署春光台交番,0166-52-4023,718142,,旭川市,12041,旭川市春光台2条4-3-9,春光台2条4-3-9,北海道/旭川市/春光台二条/四丁目/３番,142.35959,43.81768,5,7
北海道,旭川中央警察署,大町,オオマチ,交番,大町交番,旭川中央警察署大町交番,0166-51-6460,700864,,旭川市,12041,旭川市住吉4条1-1-1,住吉4条1-1-1,北海道/旭川市/住吉四条/一丁目/１番,142.35449,43.79330,5,7
北海道,旭川中央警察署,旭町,アサヒマチ,交番,旭町交番,旭川中央警察署旭町交番,0166-51-6027,700831,,旭川市,12041,旭川市旭町1条3-2764-1,旭町1条3-2764-1,北海道/旭川市/旭町一条/三丁目/２７６４番地,142.35643,43.78223,5,7
北海道,旭川中央警察署,近文,チカブミ,交番,近文交番,旭川中央警察署近文交番,0166-51-6025,700823,,旭川市,12041,旭川市緑町20-2750-16,緑町20-2750-16,北海道/旭川市/緑町/二十丁目/２７５０番地,142.32695,43.79020,5,7
北海道,旭川東警察署,東光,トウコウ,交番,東光交番,旭川東警察署東光交番,0166-32-6454,788352,,旭川市,12041,旭川市東光12条4-2-21,東光12条4-2-21,北海道/旭川市/東光十二条/四丁目/２番,142.39883,43.74426,5,7
北海道,旭川東警察署,神楽,カグラ,交番,神楽交番,旭川東警察署神楽交番,0166-61-5461,708004,,旭川市,12041,旭川市神楽4条3-2-5,神楽4条3-2-5,北海道/旭川市/神楽四条/三丁目/２番,142.34497,43.76220,5,7
北海道,旭川東警察署,緑が丘,ミドリガオカ,交番,緑が丘交番,旭川東警察署緑が丘交番,0166-65-5430,788301,,旭川市,12041,旭川市緑が丘1条2-1-2,緑が丘1条2-1-2,北海道/旭川市/緑が丘一条/二丁目/１番地,142.38228,43.73616,5,7
北海道,旭川東警察署,豊岡,トヨオカ,交番,豊岡交番,旭川東警察署豊岡交番,0166-31-3834,788233,,旭川市,12041,旭川市豊岡3条3-5-13,豊岡3条3-5-13,北海道/旭川市/豊岡三条/三丁目/５番,142.39894,43.75900,5,7
北海道,旭川東警察署,東旭川,ヒガシアサヒカワ,交番,東旭川交番,旭川東警察署東旭川交番,0166-36-2168,788261,,旭川市,12041,旭川市東旭川南1条３-2-9,東旭川南1条３-2-9,北海道/旭川市/東旭川南一条/三丁目/２番,142.43060,43.77097,5,7
北海道,旭川東警察署,永山西,ナガヤマニシ,交番,永山西交番,旭川東警察署永山西交番,0166-48-1747,798412,,旭川市,12041,旭川市永山2条7-1-45,永山2条7-1-45,北海道/旭川市/永山二条/七丁目/１番,142.40826,43.79566,5,7
北海道,旭川東警察署,永山,ナガヤマ,交番,永山交番,旭川東警察署永山交番,0166-48-2022,798412,,旭川市,12041,旭川市永山2条17-2-18,永山2条17-2-18,北海道/旭川市/永山二条/十七丁目/２番,142.43124,43.80966,5,7
北海道,旭川東警察署,金星,キンセイ,交番,金星交番,旭川東警察署金星交番,0166-24-3045,700023,,旭川市,12041,旭川市東3条5-1-39,東3条5-1-39,北海道/旭川市/東三条/五丁目/１番,142.37309,43.78207,5,7
北海道,旭川東警察署,大雪通,タイセツドオリ,交番,大雪通交番,旭川東警察署大雪通交番,0166-24-2944,700010,,旭川市,12041,旭川市大雪通4-505-1,大雪通4-505-1,北海道/旭川市/大雪通/四丁目/５０５番地,142.38571,43.77783,5,7
北海道,旭川東警察署,美瑛,ビエイ,交番,美瑛交番,旭川東警察署美瑛交番,0166-92-2036,780343,上川郡,美瑛町,14591,美瑛町中町4,中町4,北海道/上川郡/美瑛町/中町/四丁目,142.46976,43.59034,5,6
北海道,旭川東警察署,東神楽,ヒガシカグラ,交番,東神楽交番,旭川東警察署東神楽交番,0166-83-2020,711511,上川郡,東神楽町,14532,東神楽町北1条西3-250-80,北1条西3-250-80,北海道/上川郡/東神楽町/北一条/西三丁目,142.44788,43.70222,5,6
北海道,旭川東警察署,上川,カミカワ,交番,上川交番,旭川東警察署上川交番,01658-2-1068,781744,上川郡,上川町,14575,上川町北町69-1,北町69-1,北海道/上川郡/上川町/北町,142.77206,43.85204,5,5
北海道,旭川東警察署,宮前,ミヤマエ,交番,宮前交番,旭川東警察署宮前交番,0166-31-3837,788391,,旭川市,12041,旭川市宮前1-4-1-12,宮前1-4-1-12,北海道/旭川市/宮前一条/四丁目/１番,142.37520,43.75790,5,7
北海道,士別警察署,駅前,エキマエ,交番,駅前交番,士別警察署駅前交番,0165-23-2459,950023,,士別市,12203,士別市西3条9-782,西3条9-782,北海道/士別市/西三条/九丁目,142.38724,44.17155,5,6
北海道,名寄警察署,西四条北,ニシヨジョウキタ,交番,西四条北交番,名寄警察署西四条北交番,01654-3-3574,960034,,名寄市,12211,名寄市西4条北3-5,西4条北3-5,北海道/名寄市/西四条/北三丁目/５番地,142.45761,44.35909,5,7
北海道,名寄警察署,西五条南,ニシゴジョウミナミ,交番,西五条南交番,名寄警察署西五条南交番,01654-3-2519,960015,,名寄市,12211,名寄市西5条南7-21-1,西5条南7-21-1,北海道/名寄市/西五条/南七丁目/２１番地,142.45520,44.34911,5,7
北海道,名寄警察署,美深駅前,ビフカエキマエ,交番,美深駅前交番,名寄警察署美深駅前交番,01656-2-1029,982233,中川郡,美深町,14699,美深町字東3条南1-7-1,字東3条南1-7-1,北海道/中川郡/美深町/東三条南/一丁目,142.34947,44.48230,5,6
北海道,稚内警察署,中央,チュウオウ,交番,中央交番,稚内警察署中央交番,0162-23-4786,970005,,稚内市,12149,稚内市中央4-5-27,中央4-5-27,北海道/稚内市/中央/四丁目/５番,141.67648,45.41430,5,7
北海道,稚内警察署,大黒,ダイコク,交番,大黒交番,稚内警察署大黒交番,0162-23-5834,970005,,稚内市,12149,稚内市大黒3-2-6,大黒3-2-6,北海道/稚内市/大黒/三丁目/２番,141.68776,45.39685,5,7
北海道,稚内警察署,朝日,アサヒ,交番,朝日交番,稚内警察署朝日交番,0162-23-5834,970005,,稚内市,12149,稚内市朝日1-1-5,朝日1-1-5,北海道/稚内市/朝日/一丁目/１番,141.70480,45.38702,5,7
北海道,富良野警察署,駅前,エキマエ,交番,駅前交番,富良野警察署駅前交番,0167-23-2709,760025,,富良野市,12297,富良野市日の出町2-10,日の出町2-10,北海道/富良野市/日の出町/２番,142.39125,43.34612,5,7
北海道,富良野警察署,上富良野,カミフラノ,交番,上富良野交番,富良野警察署上富良野交番,0167-45-2039,710552,空知郡,上富良野町,14605,上富良野町宮町1-1-34,宮町1-1-34,北海道/空知郡/上富良野町/宮町/一丁目/１番,142.47032,43.45732,5,7
北海道,深川警察署,駅前,エキマエ,交番,駅前交番,深川警察署駅前交番,0164-22-1520,740001,,深川市,12289,深川市1条9-16,1条9-16,北海道/深川市/一条/９番,142.04283,43.72116,5,7
北海道,留萌警察署,駅前,エキマエ,交番,駅前交番,留萌警察署駅前交番,0164-42-0649,770007,,留萌市,12122,留萌市栄町1-3-28,栄町1-3-28,北海道/留萌市/栄町/一丁目/３番,141.65106,43.94246,5,7
北海道,留萌警察署,幸町,サイワイチョウ,交番,幸町交番,留萌警察署幸町交番,0164-42-3782,770031,,留萌市,12122,留萌市幸町3-12-3,幸町3-12-3,北海道/留萌市/幸町/三丁目/１２番地,141.63930,43.93979,5,7
北海道,羽幌警察署,北大通,キタオオドオリ,交番,北大通交番,羽幌警察署北大通交番,0164-62-1569,784110,苫前郡,羽幌町,14842,羽幌町北大通２-７-1,北大通２-７-1,北海道/苫前郡/羽幌町/北大通/二丁目/７番地,141.70715,44.37013,5,7
北海道,釧路警察署,栄町,サカエマチ,交番,栄町交番,釧路警察署栄町交番,0154-22-2601,850013,,釧路市,12068,釧路市栄町6-9-1,栄町6-9-1,北海道/釧路市/栄町/六丁目/９番地,144.38719,42.98544,5,7
北海道,釧路警察署,駅前,エキマエ,交番,駅前交番,釧路警察署駅前交番,0154-22-4661,850015,,釧路市,12068,釧路市北大通14-1-4,北大通14-1-4,北海道/釧路市/北大通/十四丁目/１番地,144.38242,42.99019,5,7
北海道,釧路警察署,富士見,フジミ,交番,富士見交番,釧路警察署富士見交番,0154-41-7996,850832,,釧路市,12068,釧路市富士見1-1-9,富士見1-1-9,北海道/釧路市/富士見/一丁目/１番,144.38669,42.97737,5,7
北海道,釧路警察署,望洋,ボウヨウ,交番,望洋交番,釧路警察署望洋交番,0154-91-0110,850805,,釧路市,12068,釧路市桜ヶ岡1-5-30,桜ヶ岡1-5-30,北海道/釧路市/桜ケ岡/一丁目/５番,144.42006,42.96996,5,7
北海道,釧路警察署,城山,シロヤマ,交番,城山交番,釧路警察署城山交番,0154-41-3344,850826,,釧路市,12068,釧路市城山1-118-3,城山1-118-3,北海道/釧路市/城山/一丁目,144.39491,42.98296,5,6
北海道,釧路警察署,武佐,ムサ,交番,武佐交番,釧路警察署武佐交番,0154-46-0695,850806,,釧路市,12068,釧路市武佐4-28-2,武佐4-28-2,北海道/釧路市/武佐/四丁目/２８番,144.43134,42.98680,5,7
北海道,釧路警察署,桜ヶ岡,サクラガオカ,交番,桜ヶ岡交番,釧路警察署桜ヶ岡交番,0154-91-6449,850805,,釧路市,12068,釧路市桜ヶ岡5-5-7,桜ヶ岡5-5-7,北海道/釧路市/桜ケ岡/五丁目/５番,144.42892,42.96257,5,7
北海道,釧路警察署,桂,カツラ,交番,桂交番,釧路警察署桂交番,0154-36-2980,88626,釧路郡,釧路町,16616,釧路町桂5-1,桂5-1,北海道/釧路郡/釧路町/桂/五丁目/１番地,144.40187,43.00869,5,7
北海道,釧路警察署,川北通,カワキタドオリ,交番,川北通交番,釧路警察署川北通交番,0154-23-5691,850004,,釧路市,12068,釧路市新富町9-17,新富町9-17,北海道/釧路市/新富町/９番,144.39124,42.99274,5,7
北海道,釧路警察署,遠矢,トオヤ,交番,遠矢交番,釧路警察署遠矢交番,0154-40-4491,882143,釧路郡,釧路町,16616,釧路町河畔7-52-2,河畔7-52-2,北海道/釧路郡/釧路町/河畔/七丁目/５２番地,144.45619,43.03838,5,7
北海道,釧路警察署,愛国,アイコク,交番,愛国交番,釧路警察署愛国交番,0154-37-2987,850057,,釧路市,12068,釧路市愛国西1-12-4,愛国西1-12-4,北海道/釧路市/愛国西/一丁目/１２番,144.38380,43.01057,5,7
北海道,釧路警察署,共栄,キョウエイ,交番,共栄交番,釧路警察署共栄交番,0154-23-4080,850035,,釧路市,12068,釧路市共栄大通5-2-17,共栄大通5-2-17,北海道/釧路市/共栄大通/五丁目/２番,144.37994,42.99711,5,7
北海道,釧路警察署,美原,ミハラ,交番,美原交番,釧路警察署美原交番,0154-37-4027,850065,,釧路市,12068,釧路市美原4-1-1,美原4-1-1,北海道/釧路市/美原/四丁目/１番,144.40640,43.02104,5,7
北海道,釧路警察署,昭和,ショウワ,交番,昭和交番,釧路警察署昭和交番,0154-53-2151,840909,,釧路市,12068,釧路市昭和南5-33-17,昭和南5-33-17,北海道/釧路市/昭和南/五丁目/３３番,144.35126,43.02492,5,7
北海道,釧路警察署,鳥取西,トットリニシ,交番,鳥取西交番,釧路警察署鳥取西交番,0154-51-8820,840906,,釧路市,12068,釧路市星が浦大通3-1-41,星が浦大通3-1-41,北海道/釧路市/星が浦大通/三丁目/１番,144.31818,43.01263,5,7
北海道,釧路警察署,鳥取,トットリ,交番,鳥取交番,釧路警察署鳥取交番,0154-51-7996,840906,,釧路市,12068,釧路市鳥取大通2-2-57,鳥取大通2-2-57,北海道/釧路市/鳥取大通/二丁目/２番,144.36180,43.00993,5,7
北海道,釧路警察署,大楽毛,オタノシケ,交番,大楽毛交番,釧路警察署大楽毛交番,0154-57-8210,840917,,釧路市,12068,釧路市大楽毛5-8-20,大楽毛5-8-20,北海道/釧路市/大楽毛/五丁目/８番,144.27240,43.01045,5,7
北海道,釧路警察署,白糠,シラヌカ,交番,白糠交番,釧路警察署白糠交番,0154-72-2086,880302,白糠郡,白糠町,16683,白糠町東2条南2-2,東2条南2-2,北海道/白糠郡/白糠町/東二条/南二丁目/２番地,144.07860,42.95477,5,7
北海道,厚岸警察署,本町,ホンチョウ,交番,本町交番,厚岸警察署本町交番,0153-52-2041,661111,厚岸郡,厚岸町,16624,厚岸町奔渡1-1,奔渡1-1,北海道/厚岸郡/厚岸町/奔渡/一丁目/１番地,144.85121,43.04406,5,7
北海道,根室警察署,明治,メイジ,交番,明治交番,根室警察署明治交番,0153-24-3691,870003,,根室市,12238,根室市明治町2-16-2,明治町2-16-2,北海道/根室市/明治町/二丁目/１６番地,145.59871,43.33170,5,7
北海道,根室警察署,桜橋,サクラバシ,交番,桜橋交番,根室警察署桜橋交番,0153-24-3368,870049,,根室市,12238,根室市弥生町2-4,弥生町2-4,北海道/根室市/弥生町/二丁目/４番地,145.57832,43.33185,5,7
北海道,根室警察署,駅前,エキマエ,交番,駅前交番,根室警察署駅前交番,0153-23-5720,870027,,根室市,12238,根室市光和町2-7,光和町2-7,北海道/根室市/光和町/二丁目/７番地,145.58220,43.32722,5,7
北海道,中標津警察署,中央,チュウオウ,交番,中央交番,中標津警察署中央交番,0153-73-4139,861010,標津郡,中標津町,16926,中標津町東10条南1-1-4,東10条南1-1-4,北海道/標津郡/中標津町/東十条/南一丁目/１番地,144.98262,43.55317,5,7
北海道,本別警察署,足寄,アショロ,交番,足寄交番,本別警察署足寄交番,0156-25-2151,893717,足寄郡,足寄町,16471,足寄町南7条1-1,南7条1-1,北海道/足寄郡/足寄町/南七条/一丁目/１番地,143.54604,43.23668,5,7
北海道,帯広警察署,駅前,エキマエ,交番,駅前交番,帯広警察署駅前交番,0155-23-5973,800013,,帯広市,12076,帯広市西3条南12-1-5,西3条南12-1-5,北海道/帯広市/西三条/南十二丁目/１番地,143.20029,42.91846,5,7
北海道,帯広警察署,木野,キノ,交番,木野交番,帯広警察署木野交番,0155-31-2151,800111,河東郡,音更町,16314,音更町木野大通東7-1,木野大通東7-1,北海道/河東郡/音更町/木野大通東/七丁目/１番,143.20534,42.94888,5,7
北海道,帯広警察署,東四条,ヒガシヨジョウ,交番,東四条交番,帯広警察署東四条交番,0155-23-7581,800804,,帯広市,12076,帯広市東4条南9,東4条南9,北海道/帯広市/東四条/南九丁目,143.21165,42.92264,5,6
北海道,帯広警察署,札内,サツナイ,交番,札内交番,帯広警察署札内交番,0155-56-2151,890543,中川郡,幕別町,16438,幕別町札内中央町487,札内中央町487,北海道/中川郡/幕別町/札内中央町/４８７番地,143.25763,42.91362,5,7
北海道,帯広警察署,西五条,ニシゴジョウ,交番,西五条交番,帯広警察署西五条交番,0155-23-6289,800015,,帯広市,12076,帯広市西5条南15,西5条南15,北海道/帯広市/西五条/南十五丁目,143.19821,42.91462,5,6
北海道,帯広警察署,柏林台,ハクリンダイ,交番,柏林台交番,帯広警察署柏林台交番,0155-36-1789,800026,,帯広市,12076,帯広市西16条南2,西16条南2,北海道/帯広市/西十六条/南二丁目,143.17513,42.92260,5,6
北海道,帯広警察署,新緑通,シンリョクドオリ,交番,新緑通交番,帯広警察署新緑通交番,0155-35-8251,802472,,帯広市,12076,帯広市西22条南4-1-6,西22条南4-1-6,北海道/帯広市/西二十二条/南四丁目/１番,143.13731,42.91167,5,7
北海道,帯広警察署,西十七条,ニシジュウナナジョウ,交番,西十七条交番,帯広警察署西十七条交番,0155-34-6170,800047,,帯広市,12076,帯広市西17条北??１-1-16,西17条北??１-1-16,北海道/帯広市/西十七条/北一丁目,143.16714,42.93186,4,6
北海道,帯広警察署,西帯広,ニシオビヒロ,交番,西帯広交番,帯広警察署西帯広交番,0155-37-2009,802473,,帯広市,12076,帯広市西23条南１-70-1,西23条南１-70-1,北海道/帯広市/西二十三条/南一丁目/７０番地,143.12560,42.92583,5,7
北海道,帯広警察署,稲田,イナダ,交番,稲田交番,帯広警察署稲田交番,0155-47-0313,800831,,帯広市,12076,帯広市稲田町南8線14-33,稲田町南8線14-33,北海道/帯広市/稲田町南/八線,143.19482,42.88957,5,6
北海道,帯広警察署,緑ヶ丘,ミドリガオカ,交番,緑ヶ丘交番,帯広警察署緑ヶ丘交番,0155-24-6221,800846,,帯広市,12076,帯広市緑ヶ丘東通東47,緑ヶ丘東通東47,北海道/帯広市/緑ケ丘東通東/４７番地,143.18639,42.90989,5,7
北海道,帯広警察署,大通,オオドオリ,交番,大通交番,帯広警察署大通交番,0155-23-4880,800010,,帯広市,12076,帯広市大通南21-6-1,大通南21-6-1,北海道/帯広市/大通南/二十一丁目/６番地,143.20757,42.90806,5,7
北海道,帯広警察署,大空,オオゾラ,交番,大空交番,帯広警察署大空交番,0155-48-0555,800838,,帯広市,12076,帯広市大空町12-1,大空町12-1,北海道/帯広市/大空町/十二丁目/１番,143.14992,42.87613,5,7
北海道,帯広警察署,芽室,メムロ,交番,芽室交番,帯広警察署芽室交番,0155-62-2151,820013,河西郡,芽室町,16373,芽室町東2条3,東2条3,北海道/河西郡/芽室町/東二条/三丁目,143.05115,42.91267,5,6
北海道,帯広警察署,音更,オトフケ,交番,音更交番,帯広警察署音更交番,0155-42-2151,800101,河東郡,音更町,16314,音更町大通11-3,大通11-3,北海道/河東郡/音更町/大通/十一丁目/３番,143.20061,42.99263,5,7
北海道,新得警察署,清水,シミズ,交番,清水交番,新得警察署清水交番,0156-62-2151,890012,上川郡,清水町,16365,清水町南4条4-2-2,南4条4-2-2,北海道/上川郡/清水町/南四条/四丁目,142.88698,43.01241,5,6
北海道,北見警察署,中央,チュウオウ,交番,中央交番,北見警察署中央交番,0157-23-2415,90065,,北見市,12084,北見市寿町3-1-12,寿町3-1-12,北海道/北見市/寿町/三丁目/１番,143.88234,43.81301,5,7
北海道,北見警察署,駅前,エキマエ,交番,駅前交番,北見警察署駅前交番,0157-23-3004,900020,,北見市,12084,北見市大通東１-18-2,大通東１-18-2,北海道/北見市/大通東/一丁目/１８番地,143.89754,43.80563,5,7
北海道,北見警察署,南,ミナミ,交番,南交番,北見警察署南交番,0157-23-2419,900806,,北見市,12084,北見市南町１-15-20,南町１-15-20,北海道/北見市/南町/一丁目,143.90184,43.79800,5,6
北海道,北見警察署,西,ニシ,交番,西交番,北見警察署西交番,0157-24-8306,900836,,北見市,12084,北見市東三輪4-16-172,東三輪4-16-172,北海道/北見市/東三輪/四丁目/１６番地,143.85896,43.79586,5,7
北海道,北見警察署,高栄,コウエイ,交番,高栄交番,北見警察署高栄交番,0157-23-1521,900058,,北見市,12084,北見市高栄西町7-98-760,高栄西町7-98-760,北海道/北見市/高栄西町/七丁目,143.85828,43.81633,5,6
北海道,北見警察署,留辺蘂,ルベシベ,交番,留辺蘂交番,北見警察署留辺蘂交番,0157-42-2469,90065,,北見市,12084,北見市留辺蘂町元町49,留辺蘂町元町49,北海道/北見市/留辺蘂町元町/４９番地,143.62463,43.78635,5,7
北海道,遠軽警察署,駅前,エキマエ,交番,駅前交番,遠軽警察署駅前交番,0158-42-2205,900404,紋別郡,遠軽町,15555,遠軽町大通北1-2-35,大通北1-2-35,北海道/紋別郡/遠軽町/大通北/一丁目/２番地,143.52417,44.05965,5,7
北海道,網走警察署,中央,チュウオウ,交番,中央交番,網走警察署中央交番,0152-43-2398,930001,,網走市,12114,網走市南1条東1-2-5,南1条東1-2-5,北海道/網走市/南一条/東一丁目/２番地,144.26785,44.02273,5,7
北海道,網走警察署,駒場,コマバ,交番,駒場交番,網走警察署駒場交番,0152-44-6442,930033,,網走市,12114,網走市駒場北4-1-1－2,駒場北4-1-1－2,北海道/網走市/駒場北/四丁目/１番,144.27988,44.00492,5,7
北海道,網走警察署,新町,シンマチ,交番,新町交番,網走警察署新町交番,0152-43-3351,930046,,網走市,12114,網走市新町1-8-1,新町1-8-1,北海道/網走市/新町/一丁目/８番,144.24640,44.01951,5,7
北海道,美幌警察署,仲町,ナカマチ,交番,仲町交番,美幌警察署仲町交番,0152-73-2549,920004,網走郡,美幌町,15431,美幌町字仲町2-38-1,字仲町2-38-1,北海道/網走郡/美幌町/仲町/二丁目/３８番地,144.10535,43.83274,5,7
北海道,美幌警察署,津別,ツベツ,交番,津別交番,美幌警察署津別交番,0152-76-2610,920234,網走郡,津別町,15440,津別町字旭町7,字旭町7,北海道/網走郡/津別町/旭町,144.02847,43.70899,5,5
北海道,紋別警察署,中央,チュウオウ,交番,中央交番,紋別警察署中央交番,0158-23-4520,940013,,紋別市,12190,紋別市幸町5-1,幸町5-1,北海道/紋別市/幸町/五丁目/１番,143.35210,44.35146,5,7
北海道,北警察署,石狩,イシカリ,駐在所,石狩駐在所,北警察署石狩駐在所,0133-62-3021,613377,,石狩市,12351,石狩市親船町14-1,親船町14-1,北海道/石狩市/親船町,141.34106,43.23524,5,5
北海道,北警察署,八幡,ハチマン,駐在所,八幡駐在所,北警察署八幡駐在所,0133-66-3278,613361,,石狩市,12351,石狩市八幡2-332-12,八幡2-332-12,北海道/石狩市/八幡/二丁目/３３２番地,141.37167,43.24555,5,7
北海道,北警察署,厚田,アツタ,駐在所,厚田駐在所,北警察署厚田駐在所,0133-78-2003,613601,,石狩市,12351,石狩市厚田区厚田43-4-5,厚田区厚田43-4-5,北海道/石狩市/厚田区厚田,141.48114,43.47877,5,5
北海道,北警察署,望来,モウライ,駐在所,望来駐在所,北警察署望来駐在所,0133-77-2303,613523,,石狩市,12351,石狩市厚田区望来27-5,厚田区望来27-5,北海道/石狩市/厚田区望来,141.51082,43.36155,5,5
北海道,北警察署,浜益,ハママス,駐在所,浜益駐在所,北警察署浜益駐在所,0133-79-2024,613101,,石狩市,12351,石狩市浜益区浜益77-6,浜益区浜益77-6,北海道/石狩市/浜益区浜益,141.39259,43.60681,5,5
北海道,厚別警察署,輪厚,ワッツ,駐在所,輪厚駐在所,厚別警察署輪厚駐在所,011-376-2151,611268,,北広島市,12343,北広島市輪厚中央5-4-4,輪厚中央5-4-4,北海道/北広島市/輪厚中央/五丁目/４番,141.50394,42.94108,5,7
北海道,厚別警察署,西の里,ニシノサト,駐在所,西の里駐在所,厚別警察署西の里駐在所,011-375-2555,611106,,北広島市,12343,北広島市西の里北5-2-1,西の里北5-2-1,北海道/北広島市/西の里北/五丁目/２番,141.49583,43.01663,5,7
北海道,江別警察署,角山,カクヤマ,駐在所,角山駐在所,江別警察署角山駐在所,011-383-9090,670052,,江別市,12173,江別市角山449-5,角山449-5,北海道/江別市/角山/４４９番地,141.47356,43.11411,5,7
北海道,江別警察署,新篠津,シンシノツ,駐在所,新篠津駐在所,江別警察署新篠津駐在所,0126-57-2110,681100,石狩郡,新篠津村,13048,新篠津村第47線北11,第47線北11,北海道/石狩郡/新篠津村/第/四十七線/北,141.64886,43.24685,5,7
北海道,千歳警察署,泉郷,イズミサト,駐在所,泉郷駐在所,千歳警察署泉郷駐在所,0123-28-1470,660004,,千歳市,12246,千歳市泉郷,泉郷,北海道/千歳市/泉郷,141.72839,42.90685,5,5
北海道,千歳警察署,支笏湖,シコツコ,駐在所,支笏湖駐在所,千歳警察署支笏湖駐在所,0123-25-2144,660281,,千歳市,12246,千歳市支笏湖温泉番外地,支笏湖温泉番外地,北海道/千歳市/支笏湖温泉,141.39780,42.77859,5,5
北海道,千歳警察署,島松,シママツ,駐在所,島松駐在所,千歳警察署島松駐在所,0123-36-8004,611353,,恵庭市,12319,恵庭市島松本町1-7-15,島松本町1-7-15,北海道/恵庭市/島松本町/一丁目/７番,141.57556,42.92170,5,7
北海道,岩見沢警察署,栗沢,クリサワ,駐在所,栗沢駐在所,岩見沢警察署栗沢駐在所,0126-45-2042,680123,,岩見沢市,12106,岩見沢市栗沢町東本町3-1,栗沢町東本町3-1,北海道/岩見沢市/栗沢町東本町/３番地,141.74496,43.12108,5,7
北海道,岩見沢警察署,美流渡,ミルト,駐在所,美流渡駐在所,岩見沢警察署美流渡駐在所,0126-46-2115,683171,,岩見沢市,12106,岩見沢市栗沢町美流渡本町50-2,栗沢町美流渡本町50-2,北海道/岩見沢市/栗沢町美流渡本町,141.91212,43.16324,5,5
北海道,岩見沢警察署,上志文,カミシブン,駐在所,上志文駐在所,岩見沢警察署上志文駐在所,0126-44-2733,680836,,岩見沢市,12106,岩見沢市上志文町48-8,上志文町48-8,北海道/岩見沢市/上志文町/４８番地,141.81340,43.16258,5,7
北海道,岩見沢警察署,幌向,ホロムイ,駐在所,幌向駐在所,岩見沢警察署幌向駐在所,0126-26-2254,690371,,岩見沢市,12106,岩見沢市幌向南1条3-336-1,幌向南1条3-336-1,北海道/岩見沢市/幌向南一条/三丁目/３３６番地,141.65460,43.14991,5,7
北海道,岩見沢警察署,上幌向,カミホロムイ,駐在所,上幌向駐在所,岩見沢警察署上幌向駐在所,0126-26-1509,690362,,岩見沢市,12106,岩見沢市上幌向南1条2-1247-3,上幌向南1条2-1247-3,北海道/岩見沢市/上幌向南一条/二丁目/１２４７番地,141.72002,43.18312,5,7
北海道,岩見沢警察署,志文,シブン,駐在所,志文駐在所,岩見沢警察署志文駐在所,0126-22-4609,680833,,岩見沢市,12106,岩見沢市志文町324-2,志文町324-2,北海道/岩見沢市/志文町/３２４番地,141.75587,43.16412,5,7
北海道,岩見沢警察署,月形,ツキガタ,駐在所,月形駐在所,岩見沢警察署月形駐在所,0126-53-2433,610511,樺戸郡,月形町,14303,月形町1468-19,1468-19,北海道/樺戸郡/月形町,141.66960,43.33840,2,3
北海道,岩見沢警察署,札比内,サッピナイ,駐在所,札比内駐在所,岩見沢警察署札比内駐在所,0126-54-3055,610505,樺戸郡,月形町,14303,月形町字札比内1001-21,字札比内1001-21,北海道/樺戸郡/月形町/札比内,141.74706,43.36895,5,5
北海道,岩見沢警察署,北村,キタムラ,駐在所,北村駐在所,岩見沢警察署北村駐在所,0126-56-2027,681213,,岩見沢市,12106,岩見沢市北村赤川512-3,北村赤川512-3,北海道/岩見沢市/北村赤川,141.71619,43.25072,5,5
北海道,岩見沢警察署,東,ヒガシ,駐在所,東駐在所,岩見沢警察署東駐在所,0126-22-2907,680013,,岩見沢市,12106,岩見沢市東町1条8-1363-9,東町1条8-1363-9,北海道/岩見沢市/東町一条/八丁目/１３６３番地,141.80180,43.22140,5,7
北海道,岩見沢警察署,桜木,サクラギ,駐在所,桜木駐在所,岩見沢警察署桜木駐在所,0126-22-6119,680058,,岩見沢市,12106,岩見沢市桜木1条6-2-20,桜木1条6-2-20,北海道/岩見沢市/桜木一条/六丁目/２番,141.76500,43.21553,5,7
北海道,岩見沢警察署,岡山,オカヤマ,駐在所,岡山駐在所,岩見沢警察署岡山駐在所,01267-2-2631,682165,,三笠市,12220,三笠市岡山54-19,岡山54-19,北海道/三笠市/岡山/５４番地,141.81734,43.23680,5,7
北海道,岩見沢警察署,幌内,ホロナイ,駐在所,幌内駐在所,岩見沢警察署幌内駐在所,01267-2-2942,682142,,三笠市,12220,三笠市幌内住吉町1-1,幌内住吉町1-1,北海道/三笠市/幌内住吉町/１番地,141.88580,43.23427,5,7
北海道,岩見沢警察署,唐松,トウマツ,駐在所,唐松駐在所,岩見沢警察署唐松駐在所,01267-2-2559,682136,,三笠市,12220,三笠市唐松栄町1-180-1,唐松栄町1-180-1,北海道/三笠市/唐松栄町/一丁目/１８０番地,141.91373,43.25150,5,7
北海道,岩見沢警察署,弥生,ヤヨイ,駐在所,弥生駐在所,岩見沢警察署弥生駐在所,01267-2-8179,682125,,三笠市,12220,三笠市弥生橘町72-8,弥生橘町72-8,北海道/三笠市/弥生橘町/７２番地,141.93535,43.25945,5,7
北海道,岩見沢警察署,幾春別,イクシュンベツ,駐在所,幾春別駐在所,岩見沢警察署幾春別駐在所,01267-2-8076,682115,,三笠市,12220,三笠市幾春別滝見町319-8,幾春別滝見町319-8,北海道/三笠市/幾春別滝見町/３１９番地,141.95575,43.26022,5,7
北海道,栗山警察署,角田,カクタ,駐在所,角田駐在所,栗山警察署角田駐在所,0123-72-0504,691524,夕張郡,栗山町,14290,栗山町角田28-1,角田28-1,北海道/夕張郡/栗山町/角田/２８番地,141.80821,43.03086,5,7
北海道,栗山警察署,継立,ツギタテ,駐在所,継立駐在所,栗山警察署継立駐在所,0123-75-2110,680353,夕張郡,栗山町,14290,栗山町字継立346,字継立346,北海道/夕張郡/栗山町/継立,141.87840,43.03645,5,5
北海道,栗山警察署,南長沼,ミナミナガヌマ,駐在所,南長沼駐在所,栗山警察署南長沼駐在所,0123-88-2151,691454,夕張郡,長沼町,14281,長沼町430-30,430-30,神奈川県/横浜市/栄区/長沼町/４３０番地,139.53636,35.37737,5,7
北海道,栗山警察署,北長沼,キタナガヌマ,駐在所,北長沼駐在所,栗山警察署北長沼駐在所,0123-89-2004,691317,夕張郡,長沼町,14281,長沼町字馬追原野1545-114,字馬追原野1545-114,北海道/夕張郡/長沼町,141.69537,43.01034,2,3
北海道,栗山警察署,由仁,ユニ,駐在所,由仁駐在所,栗山警察署由仁駐在所,0123-83-2204,691205,夕張郡,長沼町,14281,長沼町由仁町中央353-4,由仁町中央353-4,北海道/夕張郡/長沼町,141.69537,43.01034,2,3
北海道,栗山警察署,三川,ミカワ,駐在所,三川駐在所,栗山警察署三川駐在所,0123-86-2110,691131,夕張郡,長沼町,14281,長沼町由仁町三川泉町63,由仁町三川泉町63,北海道/夕張郡/長沼町,141.69537,43.01034,2,3
北海道,栗山警察署,川端,カワバタ,駐在所,川端駐在所,栗山警察署川端駐在所,0123-85-2004,691141,夕張郡,長沼町,14281,長沼町由仁町川端848-1,由仁町川端848-1,北海道/夕張郡/長沼町,141.69537,43.01034,2,3
北海道,栗山警察署,南幌,ナンポロ,駐在所,南幌駐在所,栗山警察署南幌駐在所,011-378-2610,690237,空知郡,南幌町,14231,南幌町栄町4-1-5,栄町4-1-5,北海道/空知郡/南幌町/栄町/四丁目/１番,141.65303,43.06491,5,7
北海道,栗山警察署,南部,ナンブ,駐在所,南部駐在所,栗山警察署南部駐在所,0123-55-2810,680545,,夕張市,12092,夕張市南部東町76,南部東町76,北海道/夕張市/南部東町/７６番地,142.08627,43.02126,5,7
北海道,栗山警察署,紅葉山,モミジヤマ,駐在所,紅葉山駐在所,栗山警察署紅葉山駐在所,0123-58-2110,680755,,夕張市,12092,夕張市紅葉山81-1,紅葉山81-1,北海道/夕張市/紅葉山/８１番地,142.03938,42.93653,5,7
北海道,栗山警察署,沼の沢,ヌマノサワ,駐在所,沼の沢駐在所,栗山警察署沼の沢駐在所,0123-57-2001,680751,,夕張市,12092,夕張市沼ノ沢42,沼ノ沢42,北海道/夕張市/沼ノ沢/４２番地,142.02693,42.95260,5,7
北海道,美唄警察署,峰延,ミネノブ,駐在所,峰延駐在所,美唄警察署峰延駐在所,0126-67-2110,790174,,美唄市,12157,美唄市字峰延92-4,字峰延92-4,北海道/美唄市/峰延町公園,141.81477,43.25528,4,5
北海道,美唄警察署,南美唄,ミナミビバイ,駐在所,南美唄駐在所,美唄警察署南美唄駐在所,0126-63-4371,720822,,美唄市,12157,美唄市南美唄町,南美唄町,北海道/美唄市/南美唄町,141.87686,43.30349,5,5
北海道,美唄警察署,茶志内,チャシナイ,駐在所,茶志内駐在所,美唄警察署茶志内駐在所,0126-65-4211,790261,,美唄市,12157,美唄市字茶志内町,字茶志内町,北海道/美唄市/茶志内町,141.89037,43.37724,5,5
北海道,美唄警察署,上美唄,カミビバイ,駐在所,上美唄駐在所,美唄警察署上美唄駐在所,0126-69-2828,720051,,美唄市,12157,美唄市字上美唄町,字上美唄町,北海道/美唄市/上美唄町,141.78177,43.33552,5,5
北海道,美唄警察署,東明,トウメイ,駐在所,東明駐在所,美唄警察署東明駐在所,0126-63-4882,720804,,美唄市,12157,美唄市東明2条2-1-6,東明2条2-1-6,北海道/美唄市/東明二条/二丁目/１番,141.89304,43.33582,5,7
北海道,滝川警察署,江部乙,エベオツ,駐在所,江部乙駐在所,滝川警察署江部乙駐在所,0125-75-2478,790463,,滝川市,12254,滝川市江部乙町東12-1-6,江部乙町東12-1-6,北海道/滝川市/江部乙町東/十二丁目/１番,141.94179,43.62464,5,7
北海道,滝川警察署,北滝の川,キタタキノカワ,駐在所,北滝の川駐在所,滝川警察署北滝の川駐在所,0125-24-7611,730003,,滝川市,12254,滝川市滝の川町西8-1-32,滝の川町西8-1-32,北海道/滝川市/滝の川町西/八丁目/１番,141.92479,43.59292,5,7
北海道,滝川警察署,東滝川,ヒガシタキカワ,駐在所,東滝川駐在所,滝川警察署東滝川駐在所,0125-28-2244,730026,,滝川市,12254,滝川市東滝川町2-1-1,東滝川町2-1-1,北海道/滝川市/東滝川町/二丁目/１番,141.98195,43.57200,5,7
北海道,滝川警察署,泉町,イズミマチ,駐在所,泉町駐在所,滝川警察署泉町駐在所,0125-23-4219,730042,,滝川市,12254,滝川市泉町1-35,泉町1-35,北海道/滝川市/泉町/一丁目,141.88925,43.57207,5,6
北海道,滝川警察署,新十津川町,シントツカワチョウ,駐在所,新十津川町駐在所,滝川警察署新十津川町駐在所,0125-76-2610,731100,樺戸郡,新十津川町,14320,新十津川町字中央3,字中央3,北海道/樺戸郡/新十津川町/中央,141.87747,43.55469,5,5
北海道,滝川警察署,花月,カゲツ,駐在所,花月駐在所,滝川警察署花月駐在所,0125-74-2012,731100,樺戸郡,新十津川町,14320,新十津川町字花月196-14,字花月196-14,北海道/樺戸郡/新十津川町/花月,141.85324,43.48305,5,5
北海道,滝川警察署,大和,ヤマト,駐在所,大和駐在所,滝川警察署大和駐在所,0125-76-2573,731100,樺戸郡,新十津川町,14320,新十津川町字大和93-15,字大和93-15,北海道/樺戸郡/新十津川町/大和,141.86426,43.60234,5,5
北海道,滝川警察署,空知太,ソラチブト,駐在所,空知太駐在所,滝川警察署空知太駐在所,0125-53-3025,730101,,砂川市,12262,砂川市空知太東1条2-1-22,空知太東1条2-1-22,北海道/砂川市/空知太東一条/二丁目/１番,141.91882,43.52842,5,7
北海道,滝川警察署,上砂川,カミスナガワ,駐在所,上砂川駐在所,滝川警察署上砂川駐在所,0125-62-2044,730200,空知郡,上砂川町,14257,上砂川町254-4,254-4,北海道/空知郡/上砂川町,141.98407,43.48254,2,3
北海道,滝川警察署,下鶉,シモウズラ,駐在所,下鶉駐在所,滝川警察署下鶉駐在所,0125-62-2069,730200,空知郡,上砂川町,14257,上砂川町字下鶉38-12,字下鶉38-12,北海道/空知郡/上砂川町,141.98407,43.48254,2,3
北海道,滝川警察署,浦臼,ウラウス,駐在所,浦臼駐在所,滝川警察署浦臼駐在所,0125-68-2004,610600,樺戸郡,浦臼町,14311,浦臼町字浦臼内172-61,字浦臼内172-61,北海道/樺戸郡/浦臼町/浦臼内,141.80460,43.42897,5,5
北海道,滝川警察署,晩生内,オソキナイ,駐在所,晩生内駐在所,滝川警察署晩生内駐在所,0125-68-2020,610600,樺戸郡,浦臼町,14311,浦臼町字晩生内228-661,字晩生内228-661,北海道/樺戸郡/浦臼町/晩生内,141.77129,43.39878,5,5
北海道,赤歌警察署,文京町,ブンキョウチョウ,駐在所,文京町駐在所,赤歌警察署文京町駐在所,0125-32-3617,791122,,赤平市,12181,赤平市西文京町3-1-30,西文京町3-1-30,北海道/赤平市/西文京町/三丁目/１番地,142.04211,43.56388,5,7
北海道,赤歌警察署,共和,キョウワ,駐在所,共和駐在所,赤歌警察署共和駐在所,0125-32-2996,791101,,赤平市,12181,赤平市共和町277-2,共和町277-2,北海道/赤平市/共和町/２７７番地,142.01779,43.58298,5,7
北海道,赤歌警察署,茂尻,モジリ,駐在所,茂尻駐在所,赤歌警察署茂尻駐在所,0125-32-2325,791261,,赤平市,12181,赤平市茂尻中央町北1-3-1,茂尻中央町北1-3-1,北海道/赤平市/茂尻中央町北/一丁目,142.08421,43.53970,5,6
北海道,赤歌警察署,平岸,ヒラギシ,駐在所,平岸駐在所,赤歌警察署平岸駐在所,0125-38-3227,791282,,赤平市,12181,赤平市平岸仲町4-2-2,平岸仲町4-2-2,北海道/赤平市/平岸仲町/四丁目/２番地,142.12572,43.54202,5,7
北海道,赤歌警察署,文珠,モンジュ,駐在所,文珠駐在所,赤歌警察署文珠駐在所,0125-42-3240,730407,,歌志内市,12271,歌志内市字文殊226-18,字文殊226-18,北海道/歌志内市/文珠,141.99257,43.49731,5,5
北海道,芦別警察署,渓水,ケイスイ,駐在所,渓水駐在所,芦別警察署渓水駐在所,0124-22-3367,750007,,芦別市,12165,芦別市北７条西3-2-3,北７条西3-2-3,北海道/芦別市/北七条/西三丁目/２番,142.17548,43.53215,5,7
北海道,芦別警察署,上芦別,カミアシベツ,駐在所,上芦別駐在所,芦別警察署上芦別駐在所,0124-4328,751371,,芦別市,12165,芦別市上芦別町157-79,上芦別町157-79,北海道/芦別市/上芦別町/１５７番地,142.20078,43.49128,5,7
北海道,芦別警察署,頼城,ライジョウ,駐在所,頼城駐在所,芦別警察署頼城駐在所,0124-25-5042,750164,,芦別市,12165,芦別市頼城町4-36,頼城町4-36,北海道/芦別市/頼城町/４番地,142.15994,43.45223,5,7
北海道,小樽警察署,塩谷,シオヤ,駐在所,塩谷駐在所,小樽警察署塩谷駐在所,0134-26-1151,482672,,小樽市,12033,小樽市塩谷2-15－10,塩谷2-15－10,北海道/小樽市/塩谷/二丁目/１５番,140.92975,43.20901,5,7
北海道,小樽警察署,蘭島,ランシマ,駐在所,蘭島駐在所,小樽警察署蘭島駐在所,0134-64-2100,482562,,小樽市,12033,小樽市蘭島1－26－21,蘭島1－26－21,北海道/小樽市/蘭島/一丁目/２６番,140.85883,43.19791,5,7
北海道,小樽警察署,オタモイ,オタモイ,駐在所,オタモイ駐在所,小樽警察署オタモイ駐在所,0134-26-1775,482671,,小樽市,12033,小樽市オタモイ1－35－19,オタモイ1－35－19,北海道/小樽市/オタモイ/一丁目/３５番,140.96190,43.22215,5,7
北海道,余市警察署,沢町,サワマチ,駐在所,沢町駐在所,余市警察署沢町駐在所,0135-23-250,460024,余市郡,余市町,14087,余市町港町211-43,港町211-43,北海道/余市郡/余市町/港町/２１１番地,140.77296,43.21506,5,7
北海道,余市警察署,仁木,ニキ,駐在所,仁木駐在所,余市警察署仁木駐在所,0135-32-2015,482405,余市郡,仁木町,14079,仁木町北町6-25,北町6-25,北海道/余市郡/仁木町/北町/六丁目,140.76764,43.16184,5,6
北海道,余市警察署,銀山,ギンザン,駐在所,銀山駐在所,余市警察署銀山駐在所,0135-33-5320,482335,余市郡,仁木町,14079,仁木町銀山2-521,銀山2-521,北海道/余市郡/仁木町/銀山/二丁目,140.72435,43.04066,5,6
北海道,余市警察署,赤井川,アカイガワ,駐在所,赤井川駐在所,余市警察署赤井川駐在所,0135-34-6110,460501,余市郡,赤井川村,14095,赤井川村字赤井川84-68,字赤井川84-68,北海道/余市郡/赤井川村/赤井川,140.81514,43.08390,5,5
北海道,余市警察署,古平,フルビラ,駐在所,古平駐在所,余市警察署古平駐在所,0135-42-2044,460131,古平郡,古平町,14061,古平町大字浜町40-11,大字浜町40-11,北海道/古平郡/古平町/浜町/４０番地,140.63869,43.26479,5,7
北海道,余市警察署,美国,ビクニ,駐在所,美国駐在所,余市警察署美国駐在所,0135-44-2002,460201,積丹郡,積丹町,14052,積丹町大字美国町字船澗47-8,大字美国町字船澗47-8,北海道/積丹郡/積丹町/美国町,140.52965,43.26040,5,5
北海道,余市警察署,入舸,イリカ,駐在所,入舸駐在所,余市警察署入舸駐在所,0135-45-6322,460327,積丹郡,積丹町,14052,積丹町大字入舸町52-1,大字入舸町52-1,北海道/積丹郡/積丹町/入舸町,140.48167,43.35941,5,5
北海道,余市警察署,余別,ヨベツ,駐在所,余別駐在所,余市警察署余別駐在所,0135-46-5342,460322,積丹郡,積丹町,14052,積丹町大字余別町255-1,大字余別町255-1,北海道/積丹郡/積丹町/余別町,140.37857,43.30555,5,5
北海道,倶知安警察署,寒別,カンベツ,駐在所,寒別駐在所,倶知安警察署寒別駐在所,0136-22-5669,440071,虻田郡,倶知安町,14001,倶知安町字寒別679-1,字寒別679-1,北海道/虻田郡/倶知安町/寒別,140.83421,42.90089,5,5
北海道,倶知安警察署,京極,キョウゴク,駐在所,京極駐在所,倶知安警察署京極駐在所,0136-42-2830,440121,虻田郡,京極町,13994,京極町字三崎91-67,字三崎91-67,北海道/虻田郡/京極町/三崎,140.90150,42.85764,5,5
北海道,倶知安警察署,喜茂別,キモベツ,駐在所,喜茂別駐在所,倶知安警察署喜茂別駐在所,0136-33-2002,440201,虻田郡,喜茂別町,13986,喜茂別町字喜茂別290-3,字喜茂別290-3,北海道/虻田郡/喜茂別町/喜茂別,140.93700,42.79590,5,5
北海道,倶知安警察署,鈴川,スズカワ,駐在所,鈴川駐在所,倶知安警察署鈴川駐在所,0136-33-6342,440451,虻田郡,喜茂別町,13986,喜茂別町字鈴川22,字鈴川22,北海道/虻田郡/喜茂別町/鈴川,140.99234,42.76532,5,5
北海道,倶知安警察署,留寿都,ルスツ,駐在所,留寿都駐在所,倶知安警察署留寿都駐在所,0136-46-3110,481731,虻田郡,留寿都村,13978,留寿都村字留寿都5-1,字留寿都5-1,北海道/虻田郡/留寿都村/留寿都,140.88101,42.74535,5,5
北海道,倶知安警察署,真狩,マッカリ,駐在所,真狩駐在所,倶知安警察署真狩駐在所,0136-45-2110,481631,虻田郡,真狩村,13960,真狩村字真狩29-24,字真狩29-24,北海道/虻田郡/真狩村/真狩,140.80309,42.76474,5,5
北海道,倶知安警察署,蘭越,ランコシ,駐在所,蘭越駐在所,倶知安警察署蘭越駐在所,0136-57-5003,481301,磯谷郡,蘭越町,13943,蘭越町蘭越町228,蘭越町228,北海道/磯谷郡/蘭越町/蘭越町,140.54199,42.80300,5,5
北海道,倶知安警察署,港,ミナト,駐在所,港駐在所,倶知安警察署港駐在所,0136-56-2101,481341,磯谷郡,蘭越町,13943,蘭越町港町1436-2,港町1436-2,北海道/磯谷郡/蘭越町/港町,140.38315,42.88031,5,5
北海道,倶知安警察署,昆布,コンブ,駐在所,昆布駐在所,倶知安警察署昆布駐在所,0136-58-2202,481302,磯谷郡,蘭越町,13943,蘭越町昆布町373-10,昆布町373-10,北海道/磯谷郡/蘭越町/昆布町,140.57578,42.79231,5,5
北海道,倶知安警察署,ニセコ,ニセコ,駐在所,ニセコ駐在所,倶知安警察署ニセコ駐在所,0136-44-2251,481502,虻田郡,ニセコ町,13951,ニセコ町字本通105-1,字本通105-1,北海道/虻田郡/ニセコ町/本通,140.68533,42.80262,5,5
北海道,岩内警察署,前田,マエダ,駐在所,前田駐在所,岩内警察署前田駐在所,0135-73-2044,482201,岩内郡,共和町,14010,共和町前田50,前田50,北海道/岩内郡/共和町/前田,140.57304,42.94995,5,5
北海道,岩内警察署,国富,クニトミ,駐在所,国富駐在所,岩内警察署国富駐在所,0135-72-1110,482143,岩内郡,共和町,14010,共和町国富30-1,国富30-1,北海道/岩内郡/共和町/国富,140.66103,42.99894,5,5
北海道,岩内警察署,発足,ハッタリ,駐在所,発足駐在所,岩内警察署発足駐在所,0135-74-3116,450122,岩内郡,共和町,14010,共和町発足128-3,発足128-3,北海道/岩内郡/共和町/発足,140.60196,43.03574,5,5
北海道,岩内警察署,小沢,コザワ,駐在所,小沢駐在所,岩内警察署小沢駐在所,0135-72-1120,482142,岩内郡,共和町,14010,共和町小沢126-73,小沢126-73,北海道/岩内郡/共和町/小沢,140.69945,42.97269,5,5
北海道,岩内警察署,泊,トマリ,駐在所,泊駐在所,岩内警察署泊駐在所,0135-75-2010,450202,古宇郡,泊村,14036,泊村大字茅沼村字臼別59-10,大字茅沼村字臼別59-10,北海道/古宇郡/泊村/茅沼村,140.54340,43.08361,5,5
北海道,岩内警察署,神恵内,カモエナイ,駐在所,神恵内駐在所,岩内警察署神恵内駐在所,0135-76-5212,450301,古宇郡,神恵内村,14044,神恵内村大字神恵内村6-38,大字神恵内村6-38,北海道/古宇郡/神恵内村/神恵内村,140.47636,43.18137,5,5
北海道,伊達警察署,黄金,コガネ,駐在所,黄金駐在所,伊達警察署黄金駐在所,0142-24-1230,590271,,伊達市,12335,伊達市南黄金町66-4,南黄金町66-4,北海道/伊達市/南黄金町/６６番地,140.90892,42.39418,5,7
北海道,伊達警察署,長和,ナガワ,駐在所,長和駐在所,伊達警察署長和駐在所,0142-23-4018,520035,,伊達市,12335,伊達市長和町420-1,長和町420-1,北海道/伊達市/長和町/４２０番地,140.83655,42.48915,5,7
北海道,伊達警察署,有珠,ウス,駐在所,有珠駐在所,伊達警察署有珠駐在所,0142-38-2110,590151,,伊達市,12335,伊達市有珠町254-2,有珠町254-2,北海道/伊達市/有珠町/２５４番地,140.79146,42.51685,5,7
北海道,伊達警察署,豊浦,トヨウラ,駐在所,豊浦駐在所,伊達警察署豊浦駐在所,0142-83-2110,495412,虻田郡,豊浦町,15717,豊浦町字旭町31-2,字旭町31-2,北海道/虻田郡/豊浦町/旭町,140.71939,42.57725,5,5
北海道,伊達警察署,大岸,オオキシ,駐在所,大岸駐在所,伊達警察署大岸駐在所,0142-84-1151,495332,虻田郡,豊浦町,15717,豊浦町字大岸113-19,字大岸113-19,北海道/虻田郡/豊浦町/大岸,140.61554,42.61436,5,5
北海道,伊達警察署,礼文華,レブンゲ,駐在所,礼文華駐在所,伊達警察署礼文華駐在所,0142-85-1001,495333,虻田郡,豊浦町,15717,豊浦町字礼文華167-37,字礼文華167-37,北海道/虻田郡/豊浦町/礼文華,140.57257,42.60112,5,5
北海道,伊達警察署,洞爺,トウヤ,駐在所,洞爺駐在所,伊達警察署洞爺駐在所,0142-82-5150,495802,虻田郡,洞爺湖町,15849,洞爺湖町洞爺町48-13,洞爺町48-13,北海道/虻田郡/洞爺湖町/洞爺町,140.82637,42.64225,5,5
北海道,伊達警察署,壮瞥,ソウベツ,駐在所,壮瞥駐在所,伊達警察署壮瞥駐在所,0142-66-2110,520101,有珠郡,壮瞥町,15750,壮瞥町字滝之町420-6,字滝之町420-6,北海道/有珠郡/壮瞥町/滝之町,140.88962,42.55123,5,5
北海道,伊達警察署,久保内,クボナイ,駐在所,久保内駐在所,伊達警察署久保内駐在所,0142-65-374,520112,有珠郡,壮瞥町,15750,壮瞥町字久保内91-7,字久保内91-7,北海道/有珠郡/壮瞥町/久保内,140.94443,42.57938,5,5
北海道,伊達警察署,大滝,オオタキ,駐在所,大滝駐在所,伊達警察署大滝駐在所,0142-68-6352,520301,,伊達市,12335,伊達市大滝区本町10-1,大滝区本町10-1,北海道/伊達市/大滝区本町,141.08081,42.67253,5,5
北海道,苫小牧警察署,虎杖浜,コジョウハマ,駐在所,虎杖浜駐在所,苫小牧警察署虎杖浜駐在所,0144-87-3649,590641,白老郡,白老町,15784,白老町字虎杖浜14,字虎杖浜14,北海道/白老郡/白老町/虎杖浜/１４番地,141.22389,42.46709,5,7
北海道,苫小牧警察署,竹浦,タケウラ,駐在所,竹浦駐在所,苫小牧警察署竹浦駐在所,0144-87-2110,590642,白老郡,白老町,15784,白老町字竹浦36-1,字竹浦36-1,北海道/白老郡/白老町/竹浦/３６番地,141.25894,42.49099,5,7
北海道,苫小牧警察署,厚真,アツマ,駐在所,厚真駐在所,苫小牧警察署厚真駐在所,0145-27-2510,591601,勇払郡,厚真町,15814,厚真町京町31,京町31,北海道/勇払郡/厚真町/京町/３１番地,141.87773,42.72445,5,7
北海道,苫小牧警察署,上厚真,カミアツマ,駐在所,上厚真駐在所,苫小牧警察署上厚真駐在所,0145-28-2014,591741,勇払郡,厚真町,15814,厚真町字上厚真538-1,字上厚真538-1,北海道/勇払郡/厚真町/上厚真,141.84833,42.63164,5,5
北海道,苫小牧警察署,勇払,ユウフツ,駐在所,勇払駐在所,苫小牧警察署勇払駐在所,0144-56-0002,591372,,苫小牧市,12131,苫小牧市字勇払27-1,字勇払27-1,北海道/苫小牧市/勇払/２７番,141.72328,42.62890,5,7
北海道,苫小牧警察署,穂別,ホベツ,駐在所,穂別駐在所,苫小牧警察署穂別駐在所,0145-45-2251,540211,勇払郡,むかわ町,15865,むかわ町穂別29-26,穂別29-26,北海道/勇払郡/むかわ町/穂別,142.12965,42.79037,5,5
北海道,苫小牧警察署,早来,ハヤキタ,駐在所,早来駐在所,苫小牧警察署早来駐在所,0145-22-2030,591501,勇払郡,安平町,15857,安平町早来大町130-2,早来大町130-2,北海道/勇払郡/安平町/早来大町/１３０番地,141.81987,42.76705,5,7
北海道,苫小牧警察署,追分,オイワケ,駐在所,追分駐在所,苫小牧警察署追分駐在所,0145-25-2003,591911,勇払郡,安平町,15857,安平町追分本町5-44-1,追分本町5-44-1,北海道/勇払郡/安平町/追分本町/五丁目,141.81465,42.87286,5,6
北海道,苫小牧警察署,遠浅,トアサ,駐在所,遠浅駐在所,苫小牧警察署遠浅駐在所,0145-22-2211,591433,勇払郡,安平町,15857,安平町遠浅14,遠浅14,北海道/勇払郡/安平町/遠浅/１４番地,141.77080,42.72800,5,7
北海道,苫小牧警察署,安平,アビラ,駐在所,安平駐在所,苫小牧警察署安平駐在所,0145-23-2339,591511,勇払郡,安平町,15857,安平町安平671-4,安平671-4,北海道/勇払郡/安平町/安平/６７１番地,141.82996,42.80855,5,7
北海道,門別警察署,本町,ホンチョウ,駐在所,本町駐在所,門別警察署本町駐在所,01456-2-6442,592121,沙流郡,日高町,16012,日高町門別本町188番２号,門別本町188番２号,北海道/沙流郡/日高町/門別本町/１８８番地,142.07358,42.47955,5,7
北海道,門別警察署,厚賀,アツガ,駐在所,厚賀駐在所,門別警察署厚賀駐在所,01456-5-2608,592243,沙流郡,日高町,16012,日高町字厚賀町147番15号,字厚賀町147番15号,北海道/沙流郡/日高町/厚賀町,142.21841,42.43250,5,5
北海道,門別警察署,平取,ビラトリ,駐在所,平取駐在所,門別警察署平取駐在所,01457-2-2444,550107,沙流郡,平取町,16021,平取町本町25-１,本町25-１,北海道/沙流郡/平取町/本町,142.13118,42.59186,5,5
北海道,門別警察署,荷負,ニオイ,駐在所,荷負駐在所,門別警察署荷負駐在所,01457-5-5314,550324,沙流郡,平取町,16021,平取町字荷負54-５,字荷負54-５,北海道/沙流郡/平取町/荷負,142.19865,42.67961,5,5
北海道,門別警察署,振内,フレナイ,駐在所,振内駐在所,門別警察署振内駐在所,01457-3-3010,550411,沙流郡,平取町,16021,平取町振内町28-10,振内町28-10,北海道/沙流郡/平取町/振内町,142.30211,42.73594,5,5
北海道,門別警察署,日高,ヒダカ,駐在所,日高駐在所,門別警察署日高駐在所,01457-6-2021,552306,沙流郡,日高町,16012,日高町宮下町２-411-15,宮下町２-411-15,北海道/沙流郡/日高町/宮下町/二丁目,142.43700,42.88198,5,6
北海道,静内警察署,御園,ミソノ,駐在所,御園駐在所,静内警察署御園駐在所,0146-46-2044,560141,日高郡,新ひだか町,16101,新ひだか町静内御園111,静内御園111,北海道/日高郡/新ひだか町/静内御園,142.47620,42.43142,5,5
北海道,静内警察署,東静内,ヒガシシズナイ,駐在所,東静内駐在所,静内警察署東静内駐在所,0146-44-2102,592561,日高郡,新ひだか町,16101,新ひだか町東静内102,東静内102,北海道/日高郡/新ひだか町/東静内,142.47874,42.30011,5,5
北海道,静内警察署,春立,ハルタチ,駐在所,春立駐在所,静内警察署春立駐在所,0146-48-2132,592565,日高郡,新ひだか町,16101,新ひだか町静内春立192,静内春立192,北海道/日高郡/新ひだか町/静内春立,142.48984,42.28099,5,5
北海道,静内警察署,三石,ミツイシ,駐在所,三石駐在所,静内警察署三石駐在所,0146-33-2144,593107,日高郡,新ひだか町,16101,新ひだか町三石旭町245,三石旭町245,北海道/日高郡/新ひだか町/三石旭町,142.56702,42.25492,5,5
北海道,静内警察署,本桐,ホンキリ,駐在所,本桐駐在所,静内警察署本桐駐在所,0146-34-2320,593231,日高郡,新ひだか町,16101,新ひだか町三石本桐221,三石本桐221,北海道/日高郡/新ひだか町/三石本桐,142.65027,42.27504,5,5
北海道,静内警察署,歌笛,ウタフエ,駐在所,歌笛駐在所,静内警察署歌笛駐在所,0146-35-3114,593351,日高郡,新ひだか町,16101,新ひだか町三石歌笛40-2,三石歌笛40-2,北海道/日高郡/新ひだか町/三石歌笛,142.67773,42.27810,5,5
北海道,静内警察署,新冠,ニイカップ,駐在所,新冠駐在所,静内警察署新冠駐在所,0146-47-2353,592404,新冠郡,新冠町,16047,新冠町字東町16-19,字東町16-19,北海道/新冠郡/新冠町/東町,142.32184,42.36155,5,5
北海道,静内警察署,節婦,セップ,駐在所,節婦駐在所,静内警察署節婦駐在所,0146-47-2789,592412,新冠郡,新冠町,16047,新冠町字節婦158-4,字節婦158-4,北海道/新冠郡/新冠町/節婦町,142.28560,42.39238,5,5
北海道,静内警察署,朝日,アサヒ,駐在所,朝日駐在所,静内警察署朝日駐在所,0146-47-2042,592414,新冠郡,新冠町,16047,新冠町字朝日293,字朝日293,北海道/新冠郡/新冠町/朝日,142.35382,42.40391,5,5
北海道,浦河警察署,荻伏,オギフシ,駐在所,荻伏駐在所,浦河警察署荻伏駐在所,0146-25-2004,593451,浦河郡,浦河町,16071,浦河町荻伏町28,荻伏町28,北海道/浦河郡/浦河町/荻伏町,142.67422,42.21646,5,5
北海道,浦河警察署,西幌別,ニシホロベツ,駐在所,西幌別駐在所,浦河警察署西幌別駐在所,0146-28-1415,570002,浦河郡,浦河町,16071,浦河町字西幌別無番地,字西幌別無番地,北海道/浦河郡/浦河町/西幌別,142.83781,42.15911,5,5
北海道,浦河警察署,様似,サマニ,駐在所,様似駐在所,浦河警察署様似駐在所,0146-36-2014,580014,様似郡,様似町,16080,様似町大通2-42-2,大通2-42-2,北海道/様似郡/様似町/大通/二丁目,142.93803,42.12677,5,6
北海道,浦河警察署,旭,アサヒ,駐在所,旭駐在所,浦河警察署旭駐在所,0146-38-2004,580001,様似郡,様似町,16080,様似町字旭75-18,字旭75-18,北海道/様似郡/様似町/旭,143.11929,42.09378,5,5
北海道,浦河警察署,えりも本町,エリモホンチョウ,駐在所,えりも本町駐在所,浦河警察署えりも本町駐在所,01466-2-2021,580203,幌泉郡,えりも町,16098,えりも町字新浜237,字新浜237,北海道/幌泉郡/えりも町/新浜,143.16592,42.01197,5,5
北海道,浦河警察署,えりも岬,エリモミサキ,駐在所,えりも岬駐在所,浦河警察署えりも岬駐在所,01466-3-1409,580342,幌泉郡,えりも町,16098,えりも町字えりも岬233-１,字えりも岬233-１,北海道/幌泉郡/えりも町/えりも岬,143.22672,41.97462,5,5
北海道,浦河警察署,庶野,ショヤ,駐在所,庶野駐在所,浦河警察署庶野駐在所,01466-4-2002,580421,幌泉郡,えりも町,16098,えりも町字庶野523-５,字庶野523-５,北海道/幌泉郡/えりも町/庶野,143.27306,42.04913,5,5
北海道,函館中央警察署,銭亀,ゼニガメ,駐在所,銭亀駐在所,函館中央警察署銭亀駐在所,0138-58-3059,420922,,函館市,12025,函館市銭亀町141-5,銭亀町141-5,北海道/函館市/銭亀町/１４１番地,140.83217,41.76171,5,7
北海道,函館中央警察署,上湯川,カミユノカワ,駐在所,上湯川駐在所,函館中央警察署上湯川駐在所,0138-57-2612,420914,,函館市,12025,函館市上湯川町16-9,上湯川町16-9,北海道/函館市/上湯川町/１６番,140.80913,41.78194,5,7
北海道,函館中央警察署,旭岡,アサヒオカ,駐在所,旭岡駐在所,函館中央警察署旭岡駐在所,0138-50-4211,420915,,函館市,12025,函館市西旭岡町2-51-6,西旭岡町2-51-6,北海道/函館市/西旭岡町/二丁目/５１番地,140.82851,41.80098,5,7
北海道,函館中央警察署,戸井,トイ,駐在所,戸井駐在所,函館中央警察署戸井駐在所,0138-82-2023,410251,,函館市,12025,函館市浜町16-3,浜町16-3,北海道/函館市/浜町,141.00978,41.73153,5,5
北海道,函館中央警察署,戸井西,トイニシ,駐在所,戸井西駐在所,函館中央警察署戸井西駐在所,0138-82-3110,410251,,函館市,12025,函館市小安町523-9,小安町523-9,北海道/函館市/小安町,140.90929,41.74779,5,5
北海道,函館中央警察署,石崎,イシザキ,駐在所,石崎駐在所,函館中央警察署石崎駐在所,0138-58-2526,410261,,函館市,12025,函館市石崎町302-1,石崎町302-1,北海道/函館市/石崎町/３０２番地,140.88631,41.75236,5,7
北海道,函館中央警察署,恵山,エサン,駐在所,恵山駐在所,函館中央警察署恵山駐在所,0138-85-2110,410525,,函館市,12025,函館市日ノ浜町153-1,日ノ浜町153-1,北海道/函館市/日ノ浜町,141.10297,41.78069,5,5
北海道,函館中央警察署,恵山西,エサンニシ,駐在所,恵山西駐在所,函館中央警察署恵山西駐在所,0138-84-2343,410404,,函館市,12025,函館市中浜町74-1,中浜町74-1,北海道/函館市/中浜町,141.06403,41.75653,5,5
北海道,函館中央警察署,椴法華,トドホッケ,駐在所,椴法華駐在所,函館中央警察署椴法華駐在所,0138-86-2150,410601,,函館市,12025,函館市新八幡町130-4,新八幡町130-4,北海道/函館市/新八幡町,141.14168,41.82803,5,5
北海道,函館中央警察署,南茅部,ミナミカヤベ,駐在所,南茅部駐在所,函館中央警察署南茅部駐在所,0138-25-3314,411611,,函館市,12025,函館市川汲町427,川汲町427,北海道/函館市/川汲町,140.95078,41.89095,5,5
北海道,函館中央警察署,臼尻,ウスジリ,駐在所,臼尻駐在所,函館中央警察署臼尻駐在所,0138-25-3016,411613,,函館市,12025,函館市臼尻町119,臼尻町119,北海道/函館市/臼尻町,140.93930,41.92225,5,5
北海道,函館中央警察署,尾札部,オサツベ,駐在所,尾札部駐在所,函館中央警察署尾札部駐在所,0138-63-2351,411603,,函館市,12025,函館市尾札部町339-1,尾札部町339-1,北海道/函館市/尾札部町,141.00394,41.86944,5,5
北海道,函館中央警察署,七飯南,ナナエミナミ,駐在所,七飯南駐在所,函館中央警察署七飯南駐在所,0138-65-2362,411122,亀田郡,七飯町,13374,七飯町大川6-15-1,大川6-15-1,北海道/亀田郡/七飯町/大川/六丁目/１５番,140.72188,41.86534,5,7
北海道,函館中央警察署,大沼,オオヌマ,駐在所,大沼駐在所,函館中央警察署大沼駐在所,0138-67-2332,411354,亀田郡,七飯町,13374,七飯町字大沼町255-2,字大沼町255-2,北海道/亀田郡/七飯町/大沼町,140.67981,41.96945,5,5
北海道,函館中央警察署,峠下,トウゲシタ,駐在所,峠下駐在所,函館中央警察署峠下駐在所,0138-65-2028,411102,亀田郡,七飯町,13374,七飯町字峠下304-3,字峠下304-3,北海道/亀田郡/七飯町/峠下,140.65581,41.93623,5,5
北海道,函館中央警察署,茂辺地,モヘジ,駐在所,茂辺地駐在所,函館中央警察署茂辺地駐在所,0138-75-2029,490281,,北斗市,12360,北斗市茂辺地2-5-37,茂辺地2-5-37,北海道/北斗市/茂辺地/二丁目,140.60371,41.76588,5,6
北海道,函館中央警察署,当別,トウベツ,駐在所,当別駐在所,函館中央警察署当別駐在所,0138-75-3131,420282,,北斗市,12360,北斗市当別3-3-9,当別3-3-9,北海道/北斗市/当別/三丁目,140.58713,41.73899,5,6
北海道,森警察署,石谷,イシヤ,駐在所,石谷駐在所,森警察署石谷駐在所,01374-7-3251,492141,茅部郡,森町,13455,森町字本茅部町163,字本茅部町163,北海道/茅部郡/森町/本茅部町,140.49159,42.14098,5,5
北海道,森警察署,駒ヶ岳,コマガタケ,駐在所,駒ヶ岳駐在所,森警察署駒ヶ岳駐在所,01374-5-2240,492463,茅部郡,森町,13455,森町字駒ヶ岳225-5,字駒ヶ岳225-5,北海道/茅部郡/森町/駒ケ岳,140.60994,42.04301,5,5
北海道,森警察署,砂原,サワラ,駐在所,砂原駐在所,森警察署砂原駐在所,01374-8-2140,492222,茅部郡,森町,13455,森町字??砂原2-176-6,字??砂原2-176-6,北海道/茅部郡/森町,140.57645,42.10499,2,3
北海道,森警察署,鹿部,シカベ,駐在所,鹿部駐在所,森警察署鹿部駐在所,01372-7-2861,411402,茅部郡,鹿部町,13439,鹿部町字??鹿部154-3,字??鹿部154-3,北海道/茅部郡/鹿部町,140.81590,42.03857,2,3
北海道,八雲警察署,落部,オトシベ,駐在所,落部駐在所,八雲警察署落部駐在所,0137-67-2070,492562,二海郡,八雲町,13463,八雲町落部87-15,落部87-15,北海道/二海郡/八雲町/落部,140.42216,42.19019,4,5
北海道,八雲警察署,野田生,ノダオイ,駐在所,野田生駐在所,八雲警察署野田生駐在所,0137-66-2001,492672,二海郡,八雲町,13463,八雲町野田生246-1,野田生246-1,北海道/二海郡/八雲町/野田生,140.37898,42.21692,4,5
北海道,八雲警察署,国縫,クンヌイ,駐在所,国縫駐在所,八雲警察署国縫駐在所,01377-5-2004,493462,山越郡,長万部町,13471,長万部町字国縫56-1,字国縫56-1,北海道/山越郡/長万部町/国縫,140.31961,42.43899,5,5
北海道,八雲警察署,静狩,シズカリ,駐在所,静狩駐在所,八雲警察署静狩駐在所,01377-6-2011,495141,山越郡,長万部町,13471,長万部町字静狩52-6,字静狩52-6,北海道/山越郡/長万部町/静狩,140.46056,42.58454,5,5
北海道,八雲警察署,熊石,クマイシ,駐在所,熊石駐在所,八雲警察署熊石駐在所,01398-2-3388,430415,二海郡,八雲町,13463,八雲町熊石根崎町71,熊石根崎町71,北海道/二海郡/八雲町/熊石根崎町,139.98701,42.13321,5,5
北海道,八雲警察署,相沼,アイヌマ,駐在所,相沼駐在所,八雲警察署相沼駐在所,01398-3-8004,430332,二海郡,八雲町,13463,八雲町熊石相沼町1-5,熊石相沼町1-5,北海道/二海郡/八雲町/熊石相沼町,140.06639,42.07388,5,5
北海道,木古内警察署,泉沢,イズミサワ,駐在所,泉沢駐在所,木古内警察署泉沢駐在所,01392-2-2322,490405,上磯郡,木古内町,13340,木古内町字泉沢159-2,字泉沢159-2,北海道/上磯郡/木古内町/泉沢,140.50610,41.70138,5,5
北海道,木古内警察署,知内,シリウチ,駐在所,知内駐在所,木古内警察署知内駐在所,01392-5-5009,491106,上磯郡,知内町,13331,知内町字元町250-2,字元町250-2,北海道/上磯郡/知内町/元町,140.41832,41.57150,5,5
北海道,木古内警察署,涌元,ワキモト,駐在所,涌元駐在所,木古内警察署涌元駐在所,01392-5-5214,491104,上磯郡,知内町,13331,知内町字涌元172-1,字涌元172-1,北海道/上磯郡/知内町/涌元,140.39946,41.56402,5,5
北海道,松前警察署,吉岡,ヨシオカ,駐在所,吉岡駐在所,松前警察署吉岡駐在所,0139-48-5007,491455,松前郡,福島町,13323,福島町字吉野519-8,字吉野519-8,北海道/松前郡/福島町/吉野,140.21480,41.43304,5,5
北海道,松前警察署,白神,シラガミ,駐在所,白神駐在所,松前警察署白神駐在所,0139-43-2026,491523,松前郡,松前町,13315,松前町字荒谷148-1,字荒谷148-1,北海道/松前郡/松前町/荒谷,140.18085,41.43054,5,5
北海道,松前警察署,小島,コジマ,駐在所,小島駐在所,松前警察署小島駐在所,0139-44-2009,491644,松前郡,松前町,13315,松前町字静浦247-58,字静浦247-58,北海道/松前郡/松前町/静浦,140.03323,41.49372,5,5
北海道,松前警察署,江良,エラ,駐在所,江良駐在所,松前警察署江良駐在所,0139-45-2013,491771,松前郡,松前町,13315,松前町字江良910-1,字江良910-1,北海道/松前郡/松前町/江良,140.00786,41.55498,5,5
北海道,江差警察署,水堀,ミズホリ,駐在所,水堀駐在所,江差警察署水堀駐在所,0139-53-6030,430017,檜山郡,江差町,13617,江差町字水堀町126-2,字水堀町126-2,北海道/檜山郡/江差町/水堀町,140.15059,41.93780,5,5
北海道,江差警察署,上ノ国,カミノクニ,駐在所,上ノ国駐在所,江差警察署上ノ国駐在所,0139-55-2003,490611,檜山郡,上ノ国町,13625,上ノ国町字大留174,字大留174,北海道/檜山郡/上ノ国町/大留,140.12262,41.80276,5,5
北海道,江差警察署,石崎,イシザキ,駐在所,石崎駐在所,江差警察署石崎駐在所,0139-59-2001,490741,檜山郡,上ノ国町,13625,上ノ国町字石崎309-12,字石崎309-12,北海道/檜山郡/上ノ国町/石崎,140.02972,41.70604,5,5
北海道,江差警察署,滝沢,タキザワ,駐在所,滝沢駐在所,江差警察署滝沢駐在所,0139-58-5011,490607,檜山郡,上ノ国町,13625,上ノ国町字扇石512,字扇石512,北海道/檜山郡/上ノ国町/扇石,140.06728,41.74522,5,5
北海道,江差警察署,湯ノ岱,ユノタイ,駐在所,湯ノ岱駐在所,江差警察署湯ノ岱駐在所,0139-56-3022,490562,檜山郡,上ノ国町,13625,上ノ国町字湯ノ岱913-6,字湯ノ岱913-6,北海道/檜山郡/上ノ国町/湯ノ岱,140.24722,41.72652,5,5
北海道,江差警察署,中須田,ナカスダ,駐在所,中須田駐在所,江差警察署中須田駐在所,0139-55-2175,490624,檜山郡,上ノ国町,13625,上ノ国町字中須田495-4,字中須田495-4,北海道/檜山郡/上ノ国町/中須田,140.13820,41.78770,5,5
北海道,江差警察署,厚沢部,アッサブ,駐在所,厚沢部駐在所,江差警察署厚沢部駐在所,0139-64-3350,431113,檜山郡,厚沢部町,13633,厚沢部町新町92-2,新町92-2,北海道/檜山郡/厚沢部町/新町,140.22586,41.92102,5,5
北海道,江差警察署,鶉,ウズラ,駐在所,鶉駐在所,江差警察署鶉駐在所,0139-65-6014,431238,檜山郡,厚沢部町,13633,厚沢部町鶉町257-1,鶉町257-1,北海道/檜山郡/厚沢部町/鶉町,140.32497,41.92757,5,5
北海道,江差警察署,館,タテ,駐在所,館駐在所,江差警察署館駐在所,0139-66-2003,431351,檜山郡,厚沢部町,13633,厚沢部町館町129-4,館町129-4,北海道/檜山郡/厚沢部町/館町,140.35687,41.89717,5,5
北海道,江差警察署,乙部,オトベ,駐在所,乙部駐在所,江差警察署乙部駐在所,0139-62-2353,430103,爾志郡,乙部町,13641,乙部町字緑町242-3,字緑町242-3,北海道/爾志郡/乙部町/緑町,140.14426,41.96637,5,5
北海道,江差警察署,豊浜,トヨハマ,駐在所,豊浜駐在所,江差警察署豊浜駐在所,0139-63-2001,430231,爾志郡,乙部町,13641,乙部町字豊浜28-2,字豊浜28-2,北海道/爾志郡/乙部町/豊浜,140.08215,42.05889,5,5
北海道,江差警察署,奥尻,オクシリ,駐在所,奥尻駐在所,江差警察署奥尻駐在所,01397-2-2016,431401,奥尻郡,奥尻町,13676,奥尻町字奥尻810-1,字奥尻810-1,北海道/奥尻郡/奥尻町/奥尻,139.49110,42.17070,5,5
北海道,江差警察署,青苗,アオナエ,駐在所,青苗駐在所,江差警察署青苗駐在所,01397-3-2350,431521,奥尻郡,奥尻町,13676,奥尻町字青苗411-52,字青苗411-52,北海道/奥尻郡/奥尻町/青苗,139.44823,42.05951,5,5
北海道,せたな警察署,若松,ワカマツ,駐在所,若松駐在所,せたな警察署若松駐在所,0137-85-1242,494752,久遠郡,せたな町,13714,せたな町北桧山区若松232-1,北桧山区若松232-1,北海道/久遠郡/せたな町/北檜山区若松,139.92386,42.35111,5,5
北海道,せたな警察署,瀬棚,セタナ,駐在所,瀬棚駐在所,せたな警察署瀬棚駐在所,0137-87-3003,494816,久遠郡,せたな町,13714,せたな町瀬棚区本町792-2,瀬棚区本町792-2,北海道/久遠郡/せたな町/瀬棚区本町,139.85243,42.45227,5,5
北海道,せたな警察署,大成,タイセイ,駐在所,大成駐在所,せたな警察署大成駐在所,01398-4-5454,430504,久遠郡,せたな町,13714,せたな町大成区都239-1,大成区都239-1,北海道/久遠郡/せたな町/大成区都,139.82117,42.22914,5,5
北海道,せたな警察署,宮野,ミヤノ,駐在所,宮野駐在所,せたな警察署宮野駐在所,01398-4-5121,430513,久遠郡,せたな町,13714,せたな町大成区宮野128-2,大成区宮野128-2,北海道/久遠郡/せたな町/大成区宮野,139.89560,42.24881,5,5
北海道,寿都警察署,湯別,ユベツ,駐在所,湯別駐在所,寿都警察署湯別駐在所,0136-64-5010,480414,寿都郡,寿都町,13927,寿都町字湯別町下湯別86－2,字湯別町下湯別86－2,北海道/寿都郡/寿都町,140.22890,42.79099,2,3
北海道,寿都警察署,磯谷,イソヤ,駐在所,磯谷駐在所,寿都警察署磯谷駐在所,0136-65-6303,480551,寿都郡,寿都町,13927,寿都町字磯谷町能津登56,字磯谷町能津登56,北海道/寿都郡/寿都町/磯谷町,140.35291,42.82051,5,5
北海道,寿都警察署,黒松内,クロマツナイ,駐在所,黒松内駐在所,寿都警察署黒松内駐在所,0136-72-3110,480101,寿都郡,黒松内町,13935,黒松内町字281－11,字281－11,北海道/寿都郡/黒松内町,140.30774,42.66779,2,3
北海道,寿都警察署,白井川,シロイカワ,駐在所,白井川駐在所,寿都警察署白井川駐在所,0136-73-2020,480134,寿都郡,黒松内町,13935,黒松内町字白井川17－65,字白井川17－65,北海道/寿都郡/黒松内町/白井川,140.42776,42.68561,5,5
北海道,寿都警察署,島牧,シママキ,駐在所,島牧駐在所,寿都警察署島牧駐在所,0136-75-6034,480621,島牧郡,島牧村,13919,島牧村字泊83－79,字泊83－79,北海道/島牧郡/島牧村/泊,140.07303,42.68644,5,5
北海道,寿都警察署,本目,ホンメ,駐在所,本目駐在所,寿都警察署本目駐在所,0136-76-7002,480603,島牧郡,島牧村,13919,島牧村字本目88－2,字本目88－2,北海道/島牧郡/島牧村/本目,140.13283,42.74691,5,5
北海道,旭川中央警察署,神居古潭,カムイコタン,駐在所,神居古潭駐在所,旭川中央警察署神居古潭駐在所,0166-72-2002,780185,,旭川市,12041,旭川市神居町神居古潭50-12,神居町神居古潭50-12,北海道/旭川市/神居町神居古潭/５０番地,142.18469,43.72022,5,7
北海道,旭川中央警察署,東鷹栖,ヒガシタカス,駐在所,東鷹栖駐在所,旭川中央警察署東鷹栖駐在所,0166-57-2218,718154,,旭川市,12041,旭川市東鷹栖4条4-639-324,東鷹栖4条4-639-324,北海道/旭川市/東鷹栖四条/四丁目/６３９番地,142.40829,43.83232,5,7
北海道,旭川中央警察署,鷹栖,タカス,駐在所,鷹栖駐在所,旭川中央警察署鷹栖駐在所,0166-87-2211,711201,上川郡,鷹栖町,14524,鷹栖町南1条3-1-16,南1条3-1-16,北海道/上川郡/鷹栖町/南一条/三丁目/１番,142.35573,43.84476,5,7
北海道,旭川中央警察署,北野,キタノ,駐在所,北野駐在所,旭川中央警察署北野駐在所,0166-87-2310,711223,上川郡,鷹栖町,14524,鷹栖町北野東3条1-1-6,北野東3条1-1-6,北海道/上川郡/鷹栖町/北野東三条/一丁目/１番,142.33577,43.82090,5,7
北海道,旭川中央警察署,北斗,ホクト,駐在所,北斗駐在所,旭川中央警察署北斗駐在所,0166-87-2446,711253,上川郡,鷹栖町,14524,鷹栖町13線15号,13線15号,北海道/上川郡/鷹栖町/十三線,142.33896,43.85087,5,5
北海道,旭川中央警察署,比布,ピップ,駐在所,比布駐在所,旭川中央警察署比布駐在所,0166-85-2225,780348,上川郡,比布町,14559,比布町北町1-1-5,北町1-1-5,北海道/上川郡/比布町/北町/一丁目,142.47792,43.87553,5,6
北海道,旭川中央警察署,蘭留,ランル,駐在所,蘭留駐在所,旭川中央警察署蘭留駐在所,0166-85-3139,780329,上川郡,比布町,14559,比布町北9線14号,北9線14号,北海道/上川郡/比布町/北/九線,142.47568,43.92630,5,6
北海道,旭川東警察署,西神楽,ニシカグラ,駐在所,西神楽駐在所,旭川東警察署西神楽駐在所,0166-75-4338,710173,,旭川市,12041,旭川市西神楽北1条2-604-1,西神楽北1条2-604-1,北海道/旭川市/西神楽北一条/二丁目/６０４番地,142.39143,43.68456,5,7
北海道,旭川東警察署,千代ヶ岡,チヨガオカ,駐在所,千代ヶ岡駐在所,旭川東警察署千代ヶ岡駐在所,0166-74-2230,788382,,旭川市,12041,旭川市西神楽2線25号474-3,西神楽2線25号474-3,北海道/旭川市/西神楽二線,142.37527,43.71952,5,5
北海道,旭川東警察署,当麻,トウマ,駐在所,当麻駐在所,旭川東警察署当麻駐在所,0166-84-2013,781314,上川郡,当麻町,14541,当麻町4条東2-1-17,4条東2-1-17,北海道/上川郡/当麻町/四条/東二丁目,142.51083,43.83062,5,6
北海道,旭川東警察署,宇園別,ウエンベツ,駐在所,宇園別駐在所,旭川東警察署宇園別駐在所,0166-84-3539,781332,上川郡,当麻町,14541,当麻町宇園別2区,宇園別2区,北海道/上川郡/当麻町/宇園別二区,142.47845,43.84078,5,5
北海道,旭川東警察署,層雲峡,ソウウンキョウ,駐在所,層雲峡駐在所,旭川東警察署層雲峡駐在所,01658-5-3016,781701,上川郡,上川町,14575,上川町字層雲峡,字層雲峡,北海道/上川郡/上川町/層雲峡,143.03529,43.65868,5,5
北海道,旭川東警察署,愛別,アイベツ,駐在所,愛別駐在所,旭川東警察署愛別駐在所,01658-6-5009,781405,上川郡,愛別町,14567,愛別町字本町103-2,字本町103-2,北海道/上川郡/愛別町/本町,142.57449,43.90804,5,5
北海道,旭川東警察署,東川,ヒガシカワ,駐在所,東川駐在所,旭川東警察署東川駐在所,0166-82-2154,781744,上川郡,東川町,14583,東川町北町１-2-1,北町１-2-1,北海道/上川郡/東川町/北町/一丁目,142.50873,43.70029,5,6
北海道,旭川東警察署,東川西,ヒガシカワニシ,駐在所,東川西駐在所,旭川東警察署東川西駐在所,0166-82-2230,781742,上川郡,東川町,14583,東川町西町８南2,西町８南2,北海道/上川郡/東川町/西町/八丁目,142.48166,43.70390,5,6
北海道,旭川東警察署,旭正,キョクセイ,駐在所,旭正駐在所,旭川東警察署旭正駐在所,0166-31-2349,788368,,旭川市,12041,旭川市東旭川町旭正214-3,東旭川町旭正214-3,北海道/旭川市/東旭川町旭正/２１４番地,142.45383,43.72541,5,7
北海道,旭川東警察署,旭山,アサヒヤマ,駐在所,旭山駐在所,旭川東警察署旭山駐在所,0166-36-2167,788203,,旭川市,12041,旭川市東旭川町日の出271-3,東旭川町日の出271-3,北海道/旭川市/東旭川町日ノ出/２７１番地,142.47031,43.77357,5,7
北海道,士別警察署,多寄,タヨロ,駐在所,多寄駐在所,士別警察署多寄駐在所,0165-26-2110,950023,,士別市,12203,士別市多寄町36線西4,多寄町36線西4,北海道/士別市/多寄町,142.41582,44.24705,5,5
北海道,士別警察署,温根別,オンネベツ,駐在所,温根別駐在所,士別警察署温根別駐在所,0165-27-2110,950181,,士別市,12203,士別市温根別町南1-6362-1,温根別町南1-6362-1,北海道/士別市/温根別町,142.23260,44.15829,5,5
北海道,士別警察署,中士別,ナカシベツ,駐在所,中士別駐在所,士別警察署中士別駐在所,0165-23-2854,950063,,士別市,12203,士別市中士別町4線東3,中士別町4線東3,北海道/士別市/中士別町,142.46011,44.17125,5,5
北海道,士別警察署,上士別,カミシベツ,駐在所,上士別駐在所,士別警察署上士別駐在所,0165-24-2151,950371,,士別市,12203,士別市上士別町16線南3,上士別町16線南3,北海道/士別市/上士別町,142.52309,44.08570,5,5
北海道,士別警察署,朝日,アサヒ,駐在所,朝日駐在所,士別警察署朝日駐在所,0165-28-2054,950401,,士別市,12203,士別市朝日町中央4520-105,朝日町中央4520-105,北海道/士別市/朝日町中央,142.60103,44.13839,5,5
北海道,士別警察署,剣淵,ケンブチ,駐在所,剣淵駐在所,士別警察署剣淵駐在所,0165-34-2131,980338,上川郡,剣淵町,14656,剣淵町仲町7番11号,仲町7番11号,北海道/上川郡/剣淵町/仲町,142.36247,44.09885,5,5
北海道,士別警察署,和寒,ワッサム,駐在所,和寒駐在所,士別警察署和寒駐在所,0165-32-2110,980132,上川郡,和寒町,14648,和寒町字西町166,字西町166,北海道/上川郡/和寒町/西町,142.41182,44.02424,5,5
北海道,士別警察署,幌加内,ホロカナイ,駐在所,幌加内駐在所,士別警察署幌加内駐在所,0165-35-2013,740411,雨竜郡,幌加内町,14729,幌加内町字幌加内,字幌加内,北海道/雨竜郡/幌加内町/幌加内,142.15599,44.01249,5,5
北海道,士別警察署,朱鞠内,シュマリナイ,駐在所,朱鞠内駐在所,士別警察署朱鞠内駐在所,0165-38-2110,740742,雨竜郡,幌加内町,14729,幌加内町字朱鞠内,字朱鞠内,北海道/雨竜郡/幌加内町/朱鞠内,142.16063,44.28910,5,5
北海道,名寄警察署,智恵文,チエブン,駐在所,智恵文駐在所,名寄警察署智恵文駐在所,01654-8-2040,982181,,名寄市,12211,名寄市智恵文11線北3,智恵文11線北3,北海道/名寄市/智恵文,142.35730,44.43080,5,5
北海道,名寄警察署,風連,フウレン,駐在所,風連駐在所,名寄警察署風連駐在所,01655-3-2110,980503,,名寄市,12211,名寄市風連町本町5-1,風連町本町5-1,北海道/名寄市/風連町本町/５番地,142.42032,44.29250,5,7
北海道,名寄警察署,風連旭,フウレンアサヒ,駐在所,風連旭駐在所,名寄警察署風連旭駐在所,01655-3-3895,980514,,名寄市,12211,名寄市風連町字旭2461,風連町字旭2461,北海道/名寄市/風連町/旭,142.46260,44.26526,5,6
北海道,名寄警察署,下川,シモカワ,駐在所,下川駐在所,名寄警察署下川駐在所,01655-4-2042,981205,上川郡,下川町,14681,下川町西町217,西町217,北海道/上川郡/下川町/西町/２１７番地,142.62973,44.30451,5,7
北海道,名寄警察署,恩根内,オンネナイ,駐在所,恩根内駐在所,名寄警察署恩根内駐在所,01656-4-1044,982361,中川郡,美深町,14699,美深町字恩根内91-45,字恩根内91-45,北海道/中川郡/美深町/恩根内,142.35143,44.61897,5,5
北海道,名寄警察署,音威子府,オトイネップ,駐在所,音威子府駐在所,名寄警察署音威子府駐在所,01656-5-3300,982501,中川郡,音威子府村,14702,音威子府村字音威子府437,字音威子府437,北海道/中川郡/音威子府村/音威子府,142.26033,44.72926,5,5
北海道,名寄警察署,中川,ナカガワ,駐在所,中川駐在所,名寄警察署中川駐在所,01656-7-2019,982800,中川郡,中川町,14711,中川町字中川237-4,字中川237-4,北海道/中川郡/中川町/中川,142.09607,44.82561,5,5
北海道,名寄警察署,佐久,サク,駐在所,佐久駐在所,名寄警察署佐久駐在所,01656-8-5071,982622,中川郡,中川町,14711,中川町字佐久163,字佐久163,北海道/中川郡/中川町/佐久,142.05023,44.74718,5,5
北海道,枝幸警察署,浜頓別,ハマトンベツ,駐在所,浜頓別駐在所,枝幸警察署浜頓別駐在所,01634-2-2110,985725,枝幸郡,浜頓別町,15121,浜頓別町大通5-1,大通5-1,北海道/枝幸郡/浜頓別町/大通/五丁目/１番地,142.36908,45.12605,5,7
北海道,枝幸警察署,中頓別,ナカトンベツ,駐在所,中頓別駐在所,枝幸警察署中頓別駐在所,01634-6-1040,985551,枝幸郡,中頓別町,15130,中頓別町字中頓別155-5,字中頓別155-5,北海道/枝幸郡/中頓別町/中頓別,142.29391,44.97290,5,5
北海道,枝幸警察署,歌登,ウタノボリ,駐在所,歌登駐在所,枝幸警察署歌登駐在所,0163-68-2821,985206,枝幸郡,枝幸町,15148,枝幸町歌登西町120-40,歌登西町120-40,北海道/枝幸郡/枝幸町/歌登西町,142.47375,44.84498,5,5
北海道,枝幸警察署,乙忠部,オッチュウベ,駐在所,乙忠部駐在所,枝幸警察署乙忠部駐在所,0163-67-5151,985952,枝幸郡,枝幸町,15148,枝幸町字乙忠部874,字乙忠部874,北海道/枝幸郡/枝幸町/乙忠部,142.68532,44.77183,5,5
北海道,稚内警察署,野寒布,ノシャップ,駐在所,野寒布駐在所,稚内警察署野寒布駐在所,0162-23-6264,970026,,稚内市,12149,稚内市ノシャップ1-3-5,ノシャップ1-3-5,北海道/稚内市/ノシャップ/一丁目/３番,141.65158,45.44498,5,7
北海道,稚内警察署,勇知,ユウチ,駐在所,勇知駐在所,稚内警察署勇知駐在所,0162-73-2009,984581,,稚内市,12149,稚内市大字抜海村字上ユーチ原野591-12,大字抜海村字上ユーチ原野591-12,北海道/稚内市/抜海村,141.66507,45.25623,5,5
北海道,稚内警察署,声問,コエトイ,駐在所,声問駐在所,稚内警察署声問駐在所,0162-26-2002,986642,,稚内市,12149,稚内市声問3-11-3,声問3-11-3,北海道/稚内市/声問/三丁目/１１番,141.75209,45.40531,5,7
北海道,稚内警察署,宗谷,ソウヤ,駐在所,宗谷駐在所,稚内警察署宗谷駐在所,0162-77-2002,986755,,稚内市,12149,稚内市大字宗谷村字宗谷84-2,大字宗谷村字宗谷84-2,北海道/稚内市/宗谷村,141.93474,45.42086,5,5
北海道,稚内警察署,宗谷岬,ソウヤミサキ,駐在所,宗谷岬駐在所,稚内警察署宗谷岬駐在所,0162-76-2002,986758,,稚内市,12149,稚内市宗谷岬5-21,宗谷岬5-21,北海道/稚内市/宗谷岬,141.94508,45.51299,5,5
北海道,稚内警察署,沼川,ヌマカワ,駐在所,沼川駐在所,稚内警察署沼川駐在所,0162-74-2303,986563,,稚内市,12149,稚内市大字声問村字沼川2529,大字声問村字沼川2529,北海道/稚内市/声問村,141.83492,45.29982,5,5
北海道,稚内警察署,鬼志別,オニシベツ,駐在所,鬼志別駐在所,稚内警察署鬼志別駐在所,01635-2-3150,986231,宗谷郡,猿払村,15113,猿払村鬼志別東町25,鬼志別東町25,北海道/宗谷郡/猿払村/鬼志別東町,142.12030,45.32988,5,5
北海道,稚内警察署,知来別,チライベツ,駐在所,知来別駐在所,稚内警察署知来別駐在所,01635-3-4033,986200,宗谷郡,猿払村,15113,猿払村知来別4690-36,知来別4690-36,北海道/宗谷郡/猿払村/知来別,142.08171,45.37836,5,5
北海道,稚内警察署,沓形,クツガタ,駐在所,沓形駐在所,稚内警察署沓形駐在所,0163-84-2110,970401,利尻郡,利尻町,15181,利尻町沓形字泉町335,沓形字泉町335,北海道/利尻郡/利尻町/沓形,141.14882,45.18752,5,5
北海道,稚内警察署,仙法志,センホウシ,駐在所,仙法志駐在所,稚内警察署仙法志駐在所,0163-85-1110,970311,利尻郡,利尻町,15181,利尻町仙法志字本町90,仙法志字本町90,北海道/利尻郡/利尻町/仙法志,141.21387,45.12474,5,5
北海道,稚内警察署,鴛泊,オシドマリ,駐在所,鴛泊駐在所,稚内警察署鴛泊駐在所,0163-82-2110,970101,利尻郡,利尻富士町,15199,利尻富士町鴛泊字栄町156-11,鴛泊字栄町156-11,北海道/利尻郡/利尻富士町/鴛泊,141.21986,45.22210,5,5
北海道,稚内警察署,鬼脇,オニワキ,駐在所,鬼脇駐在所,稚内警察署鬼脇駐在所,0163-83-1004,970211,利尻郡,利尻富士町,15199,利尻富士町鬼脇字鬼脇262,鬼脇字鬼脇262,北海道/利尻郡/利尻富士町/鬼脇,141.28934,45.16111,5,5
北海道,稚内警察署,香深,カフカ,駐在所,香深駐在所,稚内警察署香深駐在所,0163-86-1110,971201,礼文郡,礼文町,15172,礼文町大字香深村字トンナイ700,大字香深村字トンナイ700,北海道/礼文郡/礼文町/香深村,141.03171,45.33403,5,5
北海道,稚内警察署,船泊,フナドマリ,駐在所,船泊駐在所,稚内警察署船泊駐在所,0163-87-2110,971111,礼文郡,礼文町,15172,礼文町大字船泊村字ヲションナイ310-1,大字船泊村字ヲションナイ310-1,北海道/礼文郡/礼文町/船泊村,141.00156,45.39164,5,5
北海道,富良野警察署,中富良野,ナカフラノ,駐在所,中富良野駐在所,富良野警察署中富良野駐在所,0167-44-2110,710752,空知郡,中富良野町,14613,中富良野町本町6番45号,本町6番45号,北海道/空知郡/中富良野町/本町,142.42491,43.40718,5,5
北海道,富良野警察署,山部,ヤマベ,駐在所,山部駐在所,富良野警察署山部駐在所,0167-42-2202,791563,,富良野市,12297,富良野市山部東町2番23号,山部東町2番23号,北海道/富良野市/山部東町,142.38503,43.24742,5,5
北海道,富良野警察署,麓郷,ロクゴウ,駐在所,麓郷駐在所,富良野警察署麓郷駐在所,0167-29-2110,760161,,富良野市,12297,富良野市字麓郷市街地の５,字麓郷市街地の５,北海道/富良野市/麓郷市街地,142.52550,43.30284,5,5
北海道,富良野警察署,東山,ヒガシヤマ,駐在所,東山駐在所,富良野警察署東山駐在所,0167-27-0110,760202,,富良野市,12297,富良野市字東山5063,字東山5063,北海道/富良野市/東山,142.45847,43.20467,5,5
北海道,富良野警察署,幾寅,イクトラ,駐在所,幾寅駐在所,富良野警察署幾寅駐在所,0167-52-2675,792401,空知郡,南富良野町,14621,南富良野町字幾寅744-3,字幾寅744-3,北海道/空知郡/南富良野町/幾寅,142.58327,43.15821,5,5
北海道,富良野警察署,落合,オチアイ,駐在所,落合駐在所,富良野警察署落合駐在所,0167-53-0110,792551,空知郡,南富良野町,14621,南富良野町字落合1180-4,字落合1180-4,北海道/空知郡/南富良野町/落合,142.66689,43.08502,5,5
北海道,富良野警察署,金山,カナヤマ,駐在所,金山駐在所,富良野警察署金山駐在所,0167-54-2110,792131,空知郡,南富良野町,14621,南富良野町字金山1119-5,字金山1119-5,北海道/空知郡/南富良野町/金山,142.35985,43.14543,5,5
北海道,富良野警察署,占冠,シムカップ,駐在所,占冠駐在所,富良野警察署占冠駐在所,0167-56-2110,792201,勇払郡,占冠村,14630,占冠村字中央,字中央,北海道/勇払郡/占冠村/中央,142.37552,42.95546,5,5
北海道,深川警察署,一已,イチヤン,駐在所,一已駐在所,深川警察署一已駐在所,0164-22-1530,740022,,深川市,12289,深川市北光町2-8-38,北光町2-8-38,北海道/深川市/北光町/二丁目/８番,142.04214,43.72671,5,7
北海道,深川警察署,音江,オトエ,駐在所,音江駐在所,深川警察署音江駐在所,0164-25-1540,741273,,深川市,12289,深川市音江町2-5-37,音江町2-5-37,北海道/深川市/音江町/二丁目/５番,142.07553,43.69527,5,7
北海道,深川警察署,納内,オサムナイ,駐在所,納内駐在所,深川警察署納内駐在所,0164-24-2351,780151,,深川市,12289,深川市納内町2-13-1,納内町2-13-1,北海道/深川市/納内町/二丁目,142.13037,43.72536,5,6
北海道,深川警察署,更進,コウシン,駐在所,更進駐在所,深川警察署更進駐在所,0164-29-2151,741161,,深川市,12289,深川市音江町字更進726-2,音江町字更進726-2,北海道/深川市/音江町,142.10019,43.67817,5,5
北海道,深川警察署,妹背牛,モセウシ,駐在所,妹背牛駐在所,深川警察署妹背牛駐在所,0164-32-2052,790500,雨竜郡,妹背牛町,14338,妹背牛町字妹背牛417-8,字妹背牛417-8,北海道/雨竜郡/妹背牛町/妹背牛,141.95534,43.69672,5,5
北海道,深川警察署,稲田,イナダ,駐在所,稲田駐在所,深川警察署稲田駐在所,0164-25-1250,741276,,深川市,12289,深川市音江町字稲田1616-1,音江町字稲田1616-1,北海道/深川市/音江町,142.10019,43.67817,5,5
北海道,深川警察署,雨竜,ウリュウ,駐在所,雨竜駐在所,深川警察署雨竜駐在所,0125-77-2110,782638,雨竜郡,雨竜町,14362,雨竜町字満寿33-27,字満寿33-27,北海道/雨竜郡/雨竜町/満寿,141.89293,43.66146,5,5
北海道,深川警察署,秩父別,チップベツ,駐在所,秩父別駐在所,深川警察署秩父別駐在所,0164-33-2151,782102,雨竜郡,秩父別町,14346,秩父別町1875-1,1875-1,北海道/雨竜郡/秩父別町,141.95790,43.76700,2,3
北海道,深川警察署,多度志,タドシ,駐在所,多度志駐在所,深川警察署多度志駐在所,0164-27-2151,740141,,深川市,12289,深川市多度志1220,多度志1220,北海道/深川市/多度志,142.04755,43.81210,5,5
北海道,深川警察署,鷹泊,タカドマリ,駐在所,鷹泊駐在所,深川警察署鷹泊駐在所,0164-28-2151,740144,,深川市,12289,深川市鷹泊386,鷹泊386,北海道/深川市/鷹泊,142.06940,43.95869,5,5
北海道,深川警察署,和,ヤワラ,駐在所,和駐在所,深川警察署和駐在所,0164-34-2100,742512,雨竜郡,北竜町,14371,北竜町字和27-7,字和27-7,北海道/雨竜郡/北竜町/和,141.89349,43.72783,5,5
北海道,深川警察署,碧水,ヘキスイ,駐在所,碧水駐在所,深川警察署碧水駐在所,0164-34-2139,782503,雨竜郡,北竜町,14371,北竜町字碧水15-2,字碧水15-2,北海道/雨竜郡/北竜町/碧水,141.86510,43.76226,5,5
北海道,深川警察署,共成,キョウセイ,駐在所,共成駐在所,深川警察署共成駐在所,0164-35-3346,782213,雨竜郡,沼田町,14389,沼田町字共成212-2,字共成212-2,北海道/雨竜郡/沼田町/共成,142.00125,43.81927,5,5
北海道,留萌警察署,潮静,チョウセイ,駐在所,潮静駐在所,留萌警察署潮静駐在所,0164-42-7710,770013,,留萌市,12122,留萌市潮静3-146,潮静3-146,北海道/留萌市/潮静/三丁目/１４６番地,141.68398,43.91987,5,7
北海道,留萌警察署,港北,コウホク,駐在所,港北駐在所,留萌警察署港北駐在所,0164-42-0429,770004,,留萌市,12122,留萌市元町5-89-1,元町5-89-1,北海道/留萌市/元町/五丁目/８９番地,141.64352,43.95166,5,7
北海道,留萌警察署,幌糠,ホロヌカ,駐在所,幌糠駐在所,留萌警察署幌糠駐在所,0164-46-1141,783164,,留萌市,12122,留萌市大字留萌村幌糠1941,大字留萌村幌糠1941,北海道/留萌市/留萌村,141.70694,43.86126,5,5
北海道,留萌警察署,増毛,マシケ,駐在所,増毛駐在所,留萌警察署増毛駐在所,0164-53-1036,770215,増毛郡,増毛町,14818,増毛町暑寒町1-6,暑寒町1-6,北海道/増毛郡/増毛町/暑寒町/一丁目,141.51324,43.85345,5,6
北海道,留萌警察署,別苅,ベツカリ,駐在所,別苅駐在所,留萌警察署別苅駐在所,0164-53-1224,770217,増毛郡,増毛町,14818,増毛町別苅41-17,別苅41-17,北海道/増毛郡/増毛町/別苅,141.44936,43.78265,4,5
北海道,留萌警察署,舎熊,シャグマ,駐在所,舎熊駐在所,留萌警察署舎熊駐在所,0164-54-2100,770132,増毛郡,増毛町,14818,増毛町舎熊342,舎熊342,北海道/増毛郡/増毛町/舎熊,141.58562,43.79493,4,5
北海道,留萌警察署,小平,オビラ,駐在所,小平駐在所,留萌警察署小平駐在所,0164-56-2350,783301,留萌郡,小平町,14826,小平町字129-11,字129-11,北海道/留萌郡/小平町,141.66283,44.01514,2,3
北海道,留萌警察署,鬼鹿,オニシカ,駐在所,鬼鹿駐在所,留萌警察署鬼鹿駐在所,0164-57-1822,783454,留萌郡,小平町,14826,小平町字鬼鹿広富242-1,字鬼鹿広富242-1,北海道/留萌郡/小平町/鬼鹿広富,141.67659,44.13795,4,5
北海道,羽幌警察署,苫前,トママエ,駐在所,苫前駐在所,羽幌警察署苫前駐在所,0164-64-2151,783701,苫前郡,苫前町,14834,苫前町字苫前236-２,字苫前236-２,北海道/苫前郡/苫前町/苫前,141.65251,44.31168,5,5
北海道,羽幌警察署,古丹別,コタンベツ,駐在所,古丹別駐在所,羽幌警察署古丹別駐在所,0164-65-4110,783621,苫前郡,苫前町,14834,苫前町字古丹別9,字古丹別9,北海道/苫前郡/苫前町/古丹別,141.71918,44.26703,5,5
北海道,羽幌警察署,初山別,ショサンベツ,駐在所,初山別駐在所,羽幌警察署初山別駐在所,0164-67-2003,784421,苫前郡,初山別村,14851,初山別村字初山別105-１,字初山別105-１,北海道/苫前郡/初山別村/初山別,141.76830,44.53351,5,5
北海道,羽幌警察署,天売,テウリ,駐在所,天売駐在所,羽幌警察署天売駐在所,01648-3-5110,783953,苫前郡,羽幌町,14842,羽幌町大字天売字和浦,大字天売字和浦,北海道/苫前郡/羽幌町/天売,141.32050,44.42769,5,5
北海道,羽幌警察署,焼尻,ヤギシリ,駐在所,焼尻駐在所,羽幌警察署焼尻駐在所,01648-2-3110,783871,苫前郡,羽幌町,14842,羽幌町大字焼尻字東浜,大字焼尻字東浜,北海道/苫前郡/羽幌町/焼尻,141.40681,44.43690,5,5
北海道,天塩警察署,遠別,エンベツ,駐在所,遠別駐在所,天塩警察署遠別駐在所,01632-7-2110,983543,天塩郡,遠別町,14869,遠別町字本町4,字本町4,北海道/天塩郡/遠別町/本町/四丁目,141.79013,44.72306,5,6
北海道,天塩警察署,幌延,ホロノベ,駐在所,幌延駐在所,天塩警察署幌延駐在所,01632-5-1002,983207,天塩郡,幌延町,15202,幌延町宮園町,宮園町,北海道/天塩郡/幌延町/宮園町,141.85081,45.01724,5,5
北海道,天塩警察署,雄信内,オノブナイ,駐在所,雄信内駐在所,天塩警察署雄信内駐在所,01632-4-3009,983133,天塩郡,天塩町,14877,天塩町字オノプナイ,字オノプナイ,北海道/天塩郡/天塩町/オヌプナイ,141.91641,44.85858,5,5
北海道,天塩警察署,問寒別,トイカンベツ,駐在所,問寒別駐在所,天塩警察署問寒別駐在所,01632-6-5002,982943,天塩郡,幌延町,15202,幌延町字問寒別31,字問寒別31,北海道/天塩郡/幌延町/問寒別,142.05304,44.93367,5,5
北海道,天塩警察署,豊富,トヨトミ,駐在所,豊富駐在所,天塩警察署豊富駐在所,0162-82-1703,984100,天塩郡,豊富町,15164,豊富町字上サロベツ,字上サロベツ,北海道/天塩郡/豊富町,141.77751,45.10285,2,3
北海道,天塩警察署,兜沼,カブトヌマ,駐在所,兜沼駐在所,天塩警察署兜沼駐在所,0162-84-2009,984451,天塩郡,豊富町,15164,豊富町字上サロベツ西14線,字上サロベツ西14線,北海道/天塩郡/豊富町,141.77751,45.10285,2,3
北海道,釧路警察署,白樺,シラカバ,駐在所,白樺駐在所,釧路警察署白樺駐在所,0154-91-6853,850804,,釧路市,12068,釧路市白樺台2-24-1,白樺台2-24-1,北海道/釧路市/白樺台/二丁目/２４番,144.44673,42.95954,5,7
北海道,釧路警察署,別保,ベッポ,駐在所,別保駐在所,釧路警察署別保駐在所,0154-62-2151,880604,釧路郡,釧路町,16616,釧路町別保2-7,別保2-7,北海道/釧路郡/釧路町/別保/二丁目/７番地,144.46725,42.99486,5,7
北海道,釧路警察署,昆布森,コンブモリ,駐在所,昆布森駐在所,釧路警察署昆布森駐在所,0154-63-2003,852272,釧路郡,釧路町,16616,釧路町昆布森3-68,昆布森3-68,北海道/釧路郡/釧路町/昆布森/三丁目,144.53503,42.95384,5,6
北海道,釧路警察署,鶴居,ツルイ,駐在所,鶴居駐在所,釧路警察署鶴居駐在所,0154-64-2151,851203,阿寒郡,鶴居村,16675,鶴居村鶴居西4-3,鶴居西4-3,北海道/阿寒郡/鶴居村/鶴居西/四丁目,144.32452,43.23798,5,6
北海道,釧路警察署,阿寒,アカン,駐在所,阿寒駐在所,釧路警察署阿寒駐在所,0154-66-3054,850214,,釧路市,12068,釧路市阿寒町富士見2-9-1,阿寒町富士見2-9-1,北海道/釧路市/阿寒町富士見/二丁目,144.11993,43.10799,5,6
北海道,釧路警察署,徹別,テシベツ,駐在所,徹別駐在所,釧路警察署徹別駐在所,0154-68-7151,850237,,釧路市,12068,釧路市阿寒町徹別市街地本通2-6-1,阿寒町徹別市街地本通2-6-1,北海道/釧路市/阿寒町徹別中央,144.15016,43.19482,5,5
北海道,釧路警察署,阿寒湖畔,アカンコハン,駐在所,阿寒湖畔駐在所,釧路警察署阿寒湖畔駐在所,0154-67-2151,850467,,釧路市,12068,釧路市阿寒湖温泉2-1-13-1,阿寒湖温泉2-1-13-1,北海道/釧路市/阿寒町オクルシュベ,144.16339,43.42739,4,5
北海道,釧路警察署,西庶路,ニシショロ,駐在所,西庶路駐在所,釧路警察署西庶路駐在所,0154-75-2033,880573,白糠郡,白糠町,16683,白糠町西庶路東1条北2-1-1,西庶路東1条北2-1-1,北海道/白糠郡/白糠町/西庶路東一条/北二丁目/１番地,144.12724,42.98075,5,7
北海道,釧路警察署,庶路,ショロ,駐在所,庶路駐在所,釧路警察署庶路駐在所,0154-75-2151,880586,白糠郡,白糠町,16683,白糠町庶路1-3-33,庶路1-3-33,北海道/白糠郡/白糠町/庶路/一丁目/３番地,144.14436,42.98360,5,7
北海道,釧路警察署,音別,オンベツ,駐在所,音別駐在所,釧路警察署音別駐在所,0154-76-2151,880116,,釧路市,12068,釧路市音別町中園1-155,音別町中園1-155,北海道/釧路市/音別町中園/一丁目,143.93260,42.89339,5,6
北海道,厚岸警察署,尾幌,オボロ,駐在所,尾幌駐在所,厚岸警察署尾幌駐在所,0153-56-2151,880871,厚岸郡,厚岸町,16624,厚岸町尾幌280,尾幌280,北海道/厚岸郡/厚岸町/尾幌,144.69502,43.01963,5,5
北海道,厚岸警察署,霧多布,キリタップ,駐在所,霧多布駐在所,厚岸警察署霧多布駐在所,0153-62-2151,881552,厚岸郡,浜中町,16632,浜中町霧多布西2条1-62,霧多布西2条1-62,北海道/厚岸郡/浜中町/霧多布西二条/一丁目,145.12704,43.07913,5,6
北海道,厚岸警察署,茶内,チャナイ,駐在所,茶内駐在所,厚岸警察署茶内駐在所,0153-65-2151,881365,厚岸郡,浜中町,16632,浜中町茶内橋北東41,茶内橋北東41,北海道/厚岸郡/浜中町/茶内橋北東,145.02222,43.13542,5,5
北海道,厚岸警察署,浜中,ハマナカ,駐在所,浜中駐在所,厚岸警察署浜中駐在所,0153-64-2151,881485,厚岸郡,浜中町,16632,浜中町浜中桜北122,浜中桜北122,北海道/厚岸郡/浜中町/浜中桜北,145.10162,43.15881,5,5
北海道,弟子屈警察署,川湯,カワユ,駐在所,川湯駐在所,弟子屈警察署川湯駐在所,015-483-2151,883465,川上郡,弟子屈町,16659,弟子屈町川湯,川湯,北海道/川上郡/弟子屈町/川湯駅前,144.45650,43.61576,4,5
北海道,弟子屈警察署,磯分内,イソブンナイ,駐在所,磯分内駐在所,弟子屈警察署磯分内駐在所,015-486-2004,882300,川上郡,標茶町,16641,標茶町字熊牛原野15線西1,字熊牛原野15線西1,北海道/川上郡/標茶町/熊牛原野,144.56790,43.39559,5,5
北海道,弟子屈警察署,標茶,シベチャ,駐在所,標茶駐在所,弟子屈警察署標茶駐在所,015-483-2151,882314,川上郡,標茶町,16641,標茶町字標茶546-5,字標茶546-5,北海道/川上郡/標茶町/標茶,144.61116,43.44133,5,5
北海道,弟子屈警察署,塘路,トウロ,駐在所,塘路駐在所,弟子屈警察署塘路駐在所,015-487-2151,882264,川上郡,標茶町,16641,標茶町字塘路原野北7線24,字塘路原野北7線24,北海道/川上郡/標茶町/塘路原野,144.57541,43.15545,5,5
北海道,根室警察署,花咲,ハナサキ,駐在所,花咲駐在所,根室警察署花咲駐在所,0153-25-8655,870032,,根室市,12238,根室市花咲港164-3,花咲港164-3,北海道/根室市/花咲港/１６４番地,145.58154,43.29321,5,7
北海道,根室警察署,厚床,アットコ,駐在所,厚床駐在所,根室警察署厚床駐在所,0153-26-2151,860064,,根室市,12238,根室市厚床1-36,厚床1-36,北海道/根室市/厚床/一丁目,145.25726,43.23245,5,6
北海道,根室警察署,落石,オチイシ,駐在所,落石駐在所,根室警察署落石駐在所,0153-27-2151,881782,,根室市,12238,根室市落石東392,落石東392,北海道/根室市/落石東,145.48730,43.20396,5,5
北海道,根室警察署,歯舞,ハボマイ,駐在所,歯舞駐在所,根室警察署歯舞駐在所,0153-28-2151,870163,,根室市,12238,根室市歯舞４-40-1,歯舞４-40-1,北海道/根室市/歯舞/四丁目,145.75446,43.34075,5,6
北海道,根室警察署,納沙布,ノサップ,駐在所,納沙布駐在所,根室警察署納沙布駐在所,0153-28-2256,870165,,根室市,12238,根室市納沙布33-8,納沙布33-8,北海道/根室市/納沙布,145.79471,43.37906,5,5
北海道,中標津警察署,計根別,ケネベツ,駐在所,計根別駐在所,中標津警察署計根別駐在所,0153-78-2151,882682,標津郡,中標津町,16926,中標津町計根別本通西2-2,計根別本通西2-2,北海道/標津郡/中標津町/計根別本通西/二丁目,144.80827,43.48781,5,6
北海道,中標津警察署,羅臼,ラウス,駐在所,羅臼駐在所,中標津警察署羅臼駐在所,0153-87-2151,861823,目梨郡,羅臼町,16942,羅臼町栄町100-83,栄町100-83,北海道/目梨郡/羅臼町/栄町,145.18929,44.02510,5,5
北海道,中標津警察署,麻布,アザブ,駐在所,麻布駐在所,中標津警察署麻布駐在所,0153-88-2531,861842,目梨郡,羅臼町,16942,羅臼町麻布町108,麻布町108,北海道/目梨郡/羅臼町/麻布町,145.13377,43.96797,5,5
北海道,中標津警察署,標津,シベツ,駐在所,標津駐在所,中標津警察署標津駐在所,0153-82-2151,861631,標津郡,標津町,16934,標津町北1条西1-1-20,北1条西1-1-20,北海道/標津郡/標津町/北一条/西一丁目,145.13208,43.66021,5,6
北海道,中標津警察署,川北,カワキタ,駐在所,川北駐在所,中標津警察署川北駐在所,0153-85-2151,861451,標津郡,標津町,16934,標津町字川北2460-134,字川北2460-134,北海道/標津郡/標津町/川北,144.97859,43.69207,5,5
北海道,中標津警察署,薫別,クンベツ,駐在所,薫別駐在所,中標津警察署薫別駐在所,0153-84-2001,861732,標津郡,標津町,16934,標津町字薫別,字薫別,北海道/標津郡/標津町/薫別,144.99353,43.81001,5,5
北海道,中標津警察署,別海,ベッカイ,駐在所,別海駐在所,中標津警察署別海駐在所,0153-75-2151,860203,野付郡,別海町,16918,別海町別海西本町56,別海西本町56,北海道/野付郡/別海町/別海西本町,145.12268,43.39181,5,5
北海道,中標津警察署,中春別,ナカシュンベツ,駐在所,中春別駐在所,中標津警察署中春別駐在所,0153-76-2014,860651,野付郡,別海町,16918,別海町中春別東町90,中春別東町90,北海道/野付郡/別海町/中春別東町,145.05933,43.47812,5,5
北海道,中標津警察署,尾岱沼,オダイトウ,駐在所,尾岱沼駐在所,中標津警察署尾岱沼駐在所,0153-86-2151,861644,野付郡,別海町,16918,別海町尾岱沼潮見町125,尾岱沼潮見町125,北海道/野付郡/別海町/尾岱沼潮見町,145.21768,43.56631,5,5
北海道,中標津警察署,西春別駅前,ニシシュンベツエキマエ,駐在所,西春別駅前駐在所,中標津警察署西春別駅前駐在所,0153-77-2152,882565,野付郡,別海町,16918,別海町西春別駅前寿町101,西春別駅前寿町101,北海道/野付郡/別海町/西春別駅前寿町,144.76526,43.41605,5,5
北海道,中標津警察署,上春別,カミシュンベツ,駐在所,上春別駐在所,中標津警察署上春別駐在所,0153-75-6010,882723,野付郡,別海町,16918,別海町上春別南町24-1,上春別南町24-1,北海道/野付郡/別海町/上春別南町,144.89603,43.42920,5,5
北海道,中標津警察署,西春別,ニシシュンベツ,駐在所,西春別駐在所,中標津警察署西春別駐在所,0153-77-2151,882571,野付郡,別海町,16918,別海町西春別幸町55-2,西春別幸町55-2,北海道/野付郡/別海町/西春別幸町,144.81212,43.39191,5,5
北海道,池田警察署,利別,トシベツ,駐在所,利別駐在所,池田警察署利別駐在所,015-572-2665,830034,中川郡,池田町,16446,池田町字利別本町16-27,字利別本町16-27,北海道/中川郡/池田町/利別本町,143.43411,42.93345,5,5
北海道,池田警察署,高島,タカシマ,駐在所,高島駐在所,池田警察署高島駐在所,015-573-2120,893152,中川郡,池田町,16446,池田町字高島4-9,字高島4-9,北海道/中川郡/池田町/高島,143.41835,43.03782,5,5
北海道,池田警察署,茂岩,モイワ,駐在所,茂岩駐在所,池田警察署茂岩駐在所,015-574-203,895311,中川郡,豊頃町,16454,豊頃町茂岩新和町12,茂岩新和町12,北海道/中川郡/豊頃町/茂岩新和町,143.50357,42.80729,5,5
北海道,池田警察署,大津,オオツ,駐在所,大津駐在所,池田警察署大津駐在所,015-575-2002,895463,中川郡,豊頃町,16454,豊頃町大津寿町34,大津寿町34,北海道/中川郡/豊頃町/大津寿町,143.64650,42.68602,5,5
北海道,池田警察署,豊頃,トヨコロ,駐在所,豊頃駐在所,池田警察署豊頃駐在所,015-574-2151,895233,中川郡,豊頃町,16454,豊頃町豊頃南町101-1,豊頃南町101-1,北海道/中川郡/豊頃町/豊頃南町,143.54216,42.81118,5,5
北海道,池田警察署,浦幌,ウラホロ,駐在所,浦幌駐在所,池田警察署浦幌駐在所,015-576-2151,895614,十勝郡,浦幌町,16497,浦幌町字桜町16-26,字桜町16-26,北海道/十勝郡/浦幌町/桜町/１６番地,143.65834,42.80886,5,7
北海道,池田警察署,吉野,ヨシノ,駐在所,吉野駐在所,池田警察署吉野駐在所,015-576-2028,895541,十勝郡,浦幌町,16497,浦幌町字吉野116-3,字吉野116-3,北海道/十勝郡/浦幌町/吉野,143.60371,42.77452,5,5
北海道,池田警察署,厚内,アツナイ,駐在所,厚内駐在所,池田警察署厚内駐在所,015-578-2110,895865,十勝郡,浦幌町,16497,浦幌町字厚内3条通2-2,字厚内3条通2-2,北海道/十勝郡/浦幌町/厚内三条通/二丁目,143.81693,42.80803,5,6
北海道,池田警察署,上浦幌,カミウラホロ,駐在所,上浦幌駐在所,池田警察署上浦幌駐在所,015-576-6151,893578,十勝郡,浦幌町,16497,浦幌町字宝生164-13,字宝生164-13,北海道/十勝郡/浦幌町/宝生,143.61876,43.08328,5,5
北海道,本別警察署,勇足,ユウタリ,駐在所,勇足駐在所,本別警察署勇足駐在所,0156-23-2151,893281,中川郡,本別町,16462,本別町勇足元町4-3,勇足元町4-3,北海道/中川郡/本別町/勇足元町,143.51535,43.09055,5,5
北海道,本別警察署,芽登,メトウ,駐在所,芽登駐在所,本別警察署芽登駐在所,0156-26-2151,893871,足寄郡,足寄町,16471,足寄町芽登本町114,芽登本町114,北海道/足寄郡/足寄町/芽登本町,143.42511,43.27635,5,5
北海道,本別警察署,螺湾,ラワン,駐在所,螺湾駐在所,本別警察署螺湾駐在所,0156-29-7151,893966,足寄郡,足寄町,16471,足寄町螺湾本町53,螺湾本町53,北海道/足寄郡/足寄町/螺湾本町,143.70648,43.31078,5,5
北海道,本別警察署,上利別,カミトシベツ,駐在所,上利別駐在所,本別警察署上利別駐在所,0156-29-8313,894141,足寄郡,足寄町,16471,足寄町上利別本町67,上利別本町67,北海道/足寄郡/足寄町/上利別本町,143.60243,43.34941,5,5
北海道,本別警察署,陸別,リクベツ,駐在所,陸別駐在所,本別警察署陸別駐在所,0156-27-2151,894311,足寄郡,陸別町,16489,陸別町東3条3-4-1,東3条3-4-1,北海道/足寄郡/陸別町,143.74730,43.46891,2,3
北海道,帯広警察署,上美生,カミビセイ,駐在所,上美生駐在所,帯広警察署上美生駐在所,0155-66-2151,820384,河西郡,芽室町,16373,芽室町字上美生,字上美生,北海道/河西郡/芽室町/上美生,142.80315,42.84455,5,5
北海道,帯広警察署,駒場,コマバ,駐在所,駒場駐在所,帯広警察署駒場駐在所,0155-44-2120,800564,河東郡,音更町,16314,音更町駒場北1条通2-1,駒場北1条通2-1,北海道/河東郡/音更町/駒場北一条通/二丁目,143.18587,43.04895,5,6
北海道,帯広警察署,十勝川温泉,トカチガワオンセン,駐在所,十勝川温泉駐在所,帯広警察署十勝川温泉駐在所,0155-46-2151,800261,河東郡,音更町,16314,音更町十勝川温泉南12-1,十勝川温泉南12-1,北海道/河東郡/音更町/十勝川温泉南/十二丁目/１番,143.29535,42.93244,5,7
北海道,帯広警察署,士幌,シホロ,駐在所,士幌駐在所,帯広警察署士幌駐在所,01564-5-2360,801200,河東郡,士幌町,16322,士幌町字士幌西２線160-59,字士幌西２線160-59,北海道/河東郡/士幌町/士幌西/二線,143.25052,43.19004,5,6
北海道,帯広警察署,中士幌,ナカシホロ,駐在所,中士幌駐在所,帯広警察署中士幌駐在所,01654-7-4121,801189,河東郡,士幌町,16322,士幌町字中士幌西２線77,字中士幌西２線77,北海道/河東郡/士幌町/中士幌西/二線,143.23547,43.12242,5,6
北海道,帯広警察署,上士幌,カミシホロ,駐在所,上士幌駐在所,帯広警察署上士幌駐在所,01564-2-2151,801400,河東郡,上士幌町,16331,上士幌町東3線237-199,東3線237-199,北海道/河東郡/上士幌町,143.29625,43.23262,2,3
北海道,帯広警察署,糠平,ヌカビラ,駐在所,糠平駐在所,帯広警察署糠平駐在所,01654-4-2220,801403,河東郡,上士幌町,16331,上士幌町字糠平南区12,字糠平南区12,北海道/河東郡/上士幌町/字糠平,143.16464,43.37973,4,0
北海道,帯広警察署,幕別,マクベツ,駐在所,幕別駐在所,帯広警察署幕別駐在所,0155-51-2151,890616,中川郡,幕別町,16438,幕別町宝町53-1,宝町53-1,北海道/中川郡/幕別町/宝町/５３番地,143.35847,42.90520,5,7
北海道,帯広警察署,糠内,ヌカナイ,駐在所,糠内駐在所,帯広警察署糠内駐在所,0155-57-2151,890781,中川郡,幕別町,16438,幕別町字五位373,字五位373,北海道/中川郡/幕別町/五位,143.33885,42.78246,5,5
北海道,帯広警察署,更別,サラベツ,駐在所,更別駐在所,帯広警察署更別駐在所,0155-52-3232,891500,河西郡,更別村,16390,更別村字更別南1線91-129,字更別南1線91-129,北海道/河西郡/更別村/更別,143.19717,42.65870,5,5
北海道,帯広警察署,忠類,チュウルイ,駐在所,忠類駐在所,帯広警察署忠類駐在所,01558-8-2151,890600,中川郡,幕別町,16438,幕別町忠類白銀町165-1,忠類白銀町165-1,北海道/中川郡/幕別町/忠類白銀町,143.30357,42.55938,5,5
北海道,帯広警察署,中札内,ナカサツナイ,駐在所,中札内駐在所,帯広警察署中札内駐在所,0155-67-2210,891310,河西郡,中札内村,16381,中札内村大通北1-15,大通北1-15,北海道/河西郡/中札内村/大通北/一丁目,143.13344,42.69983,5,6
北海道,帯広警察署,川西,カワニシ,駐在所,川西駐在所,帯広警察署川西駐在所,0155-59-2300,891182,,帯広市,12076,帯広市川西町基線57,川西町基線57,北海道/帯広市/川西町基線/５７番地,143.17868,42.84625,5,7
北海道,帯広警察署,大正,タイショウ,駐在所,大正駐在所,帯広警察署大正駐在所,0155-64-5110,891242,,帯広市,12076,帯広市大正本町２,大正本町２,北海道/帯広市/大正本町西一条,143.16289,42.79530,4,5
北海道,新得警察署,屈足,クッタリ,駐在所,屈足駐在所,新得警察署屈足駐在所,0156-65-2151,810161,上川郡,新得町,16357,新得町屈足柏町1-44-1,屈足柏町1-44-1,北海道/上川郡/新得町/屈足柏町/一丁目,142.90517,43.10167,5,6
北海道,新得警察署,御影,ミカゲ,駐在所,御影駐在所,新得警察署御影駐在所,0156-63-2151,890371,上川郡,清水町,16365,清水町御影東1条3,御影東1条3,北海道/上川郡/清水町/御影東一条/三丁目,142.93936,42.94393,5,6
北海道,新得警察署,鹿追,シカオイ,駐在所,鹿追駐在所,新得警察署鹿追駐在所,0156-66-2151,810201,河東郡,鹿追町,16349,鹿追町新町1-42,新町1-42,北海道/河東郡/鹿追町/新町/一丁目,142.99118,43.10172,5,6
北海道,新得警察署,瓜幕,ウリマク,駐在所,瓜幕駐在所,新得警察署瓜幕駐在所,0156-67-2151,810342,河東郡,鹿追町,16349,鹿追町瓜幕西2-5,瓜幕西2-5,北海道/河東郡/鹿追町/瓜幕西/二丁目,143.02383,43.16841,5,6
北海道,広尾警察署,大樹,タイキ,駐在所,大樹駐在所,広尾警察署大樹駐在所,01558-6-2151,892152,広尾郡,大樹町,16411,大樹町西本通73-3,西本通73-3,北海道/広尾郡/大樹町/西本通/７３番地,143.27289,42.48728,5,7
北海道,広尾警察署,豊似,トヨニ,駐在所,豊似駐在所,広尾警察署豊似駐在所,01558-5-2151,892455,広尾郡,広尾町,16420,広尾町字豊似,字豊似,北海道/広尾郡/広尾町/豊似,143.30125,42.39942,5,5
北海道,広尾警察署,音調津,オシラベツ,駐在所,音調津駐在所,広尾警察署音調津駐在所,01558-2-5211,892771,広尾郡,広尾町,16420,広尾町字音調津693-2,字音調津693-2,北海道/広尾郡/広尾町/音調津,143.31680,42.22253,5,5
北海道,北見警察署,温根湯,オンネユ,駐在所,温根湯駐在所,北見警察署温根湯駐在所,0157-45-2154,910153,,北見市,12084,北見市留辺蘂町松山1-7,留辺蘂町松山1-7,北海道/北見市/留辺蘂町松山/１番地,143.50101,43.74886,5,7
北海道,北見警察署,相内,アイノナイ,駐在所,相内駐在所,北見警察署相内駐在所,0157-37-2811,990871,,北見市,12084,北見市相内町111-1,相内町111-1,北海道/北見市/相内町,143.75610,43.79748,5,5
北海道,北見警察署,東相内,ヒガシアイノナイ,駐在所,東相内駐在所,北見警察署東相内駐在所,0157-36-5418,990878,,北見市,12084,北見市東相内183-4,東相内183-4,北海道/北見市/東相内町,143.80777,43.80263,5,5
北海道,北見警察署,置戸,オケト,駐在所,置戸駐在所,北見警察署置戸駐在所,0157-52-3101,991100,常呂郡,置戸町,15504,置戸町字置戸9-10,字置戸9-10,北海道/常呂郡/置戸町/置戸,143.60408,43.68053,5,5
北海道,北見警察署,勝山,カツヤマ,駐在所,勝山駐在所,北見警察署勝山駐在所,0157-54-2022,991251,常呂郡,置戸町,15504,置戸町字安住139-22,字安住139-22,北海道/常呂郡/置戸町/安住,143.52682,43.65821,5,5
北海道,北見警察署,訓子府,クンネップ,駐在所,訓子府駐在所,北見警察署訓子府駐在所,0157-47-2410,991434,常呂郡,訓子府町,15491,訓子府町栄町31,栄町31,北海道/常呂郡/訓子府町/栄町,143.73538,43.72411,5,5
北海道,北見警察署,上常呂,カミトコロ,駐在所,上常呂駐在所,北見警察署上常呂駐在所,0157-38-2101,991585,,北見市,12084,北見市上ところ355-33,上ところ355-33,北海道/北見市/上ところ/３５５番地,143.83089,43.75411,5,7
北海道,北見警察署,端野,タンノ,駐在所,端野駐在所,北見警察署端野駐在所,0157-56-2024,992102,,北見市,12084,北見市端野町二区476-4,端野町二区476-4,北海道/北見市/端野町二区,143.93451,43.87448,5,5
北海道,北見警察署,小泉,コイズミ,駐在所,小泉駐在所,北見警察署小泉駐在所,0157-24-6330,900801,,北見市,12084,北見市春光町6-2-1,春光町6-2-1,北海道/北見市/春光町/六丁目/２番,143.92450,43.82365,5,7
北海道,北見警察署,仁頃,ニコロ,駐在所,仁頃駐在所,北見警察署仁頃駐在所,0157-24-6330,900003,,北見市,12084,北見市仁頃町237-1,仁頃町237-1,北海道/北見市/仁頃町,143.90576,43.89553,5,5
北海道,北見警察署,常呂,トコロ,駐在所,常呂駐在所,北見警察署常呂駐在所,0152-54-2627,930210,,北見市,12084,北見市常呂町字常呂387,常呂町字常呂387,北海道/北見市/常呂町/常呂,144.07336,44.12042,5,6
北海道,遠軽警察署,丸瀬布,マルセップ,駐在所,丸瀬布駐在所,遠軽警察署丸瀬布駐在所,0158-47-2352,990205,紋別郡,遠軽町,15555,遠軽町丸瀬布東町259-2,丸瀬布東町259-2,北海道/紋別郡/遠軽町/丸瀬布東町,143.34145,44.01286,5,5
北海道,遠軽警察署,白滝,シラタキ,駐在所,白滝駐在所,遠軽警察署白滝駐在所,0158-48-2009,990111,紋別郡,遠軽町,15555,遠軽町白滝1056-3,白滝1056-3,北海道/紋別郡/遠軽町/白滝,143.17752,43.88017,5,5
北海道,遠軽警察署,生田原,イクタハラ,駐在所,生田原駐在所,遠軽警察署生田原駐在所,0158-45-2326,990701,紋別郡,遠軽町,15555,遠軽町生田原416,生田原416,北海道/紋別郡/遠軽町/生田原,143.53400,43.92665,5,5
北海道,遠軽警察署,安国,ヤスクニ,駐在所,安国駐在所,遠軽警察署安国駐在所,0158-46-2210,990622,紋別郡,遠軽町,15555,遠軽町安国92,安国92,北海道/紋別郡/遠軽町,143.52773,44.06195,3,3
北海道,遠軽警察署,湧別,ユウベツ,駐在所,湧別駐在所,遠軽警察署湧別駐在所,01586-5-2342,996402,紋別郡,湧別町,15598,湧別町曙町76,曙町76,北海道/紋別郡/湧別町/曙町,143.61952,44.22847,5,5
北海道,遠軽警察署,芭露,バロウ,駐在所,芭露駐在所,遠軽警察署芭露駐在所,01586-6-2016,930731,紋別郡,湧別町,15598,湧別町芭露282,芭露282,北海道/紋別郡/湧別町/芭露,143.65169,44.13674,5,5
北海道,遠軽警察署,中湧別,ナカユウベツ,駐在所,中湧別駐在所,遠軽警察署中湧別駐在所,01586-2-2034,996328,紋別郡,湧別町,15598,湧別町中湧別南町539,中湧別南町539,北海道/紋別郡/湧別町/中湧別南町,143.58435,44.18500,5,5
北海道,遠軽警察署,上湧別,カミユウベツ,駐在所,上湧別駐在所,遠軽警察署上湧別駐在所,01586-2-2517,996501,紋別郡,湧別町,15598,湧別町上湧別屯田市街地224-1,上湧別屯田市街地224-1,北海道/紋別郡/湧別町/上湧別屯田市街地,143.58188,44.14746,5,5
北海道,遠軽警察署,佐呂間,サロマ,駐在所,佐呂間駐在所,遠軽警察署佐呂間駐在所,01587-2-3004,930501,常呂郡,佐呂間町,15521,佐呂間町字宮前町166-1,字宮前町166-1,北海道/常呂郡/佐呂間町/宮前町,143.76978,44.01695,5,5
北海道,遠軽警察署,浜佐呂間,ハマサロマ,駐在所,浜佐呂間駐在所,遠軽警察署浜佐呂間駐在所,01587-6-2110,930423,常呂郡,佐呂間町,15521,佐呂間町字浜佐呂間61,字浜佐呂間61,北海道/常呂郡/佐呂間町/浜佐呂間,143.92960,44.07090,5,5
北海道,遠軽警察署,若佐,ワカサ,駐在所,若佐駐在所,遠軽警察署若佐駐在所,01587-2-8005,910551,常呂郡,佐呂間町,15521,佐呂間町字若佐45-2,字若佐45-2,北海道/常呂郡/佐呂間町/若佐,143.70424,43.98331,5,5
北海道,網走警察署,卯原内,ウバラナイ,駐在所,卯原内駐在所,網走警察署卯原内駐在所,0152-47-2501,930135,,網走市,12114,網走市字卯原内89-3,字卯原内89-3,北海道/網走市/卯原内,144.08836,44.00067,5,5
北海道,網走警察署,呼人,ヨビト,駐在所,呼人駐在所,網走警察署呼人駐在所,0152-48-2008,992421,,網走市,12114,網走市字呼人317,字呼人317,北海道/網走市/呼人,144.20566,43.96508,5,5
北海道,網走警察署,女満別,メマンベツ,駐在所,女満別駐在所,網走警察署女満別駐在所,0152-74-2019,902323,網走郡,大空町,15644,大空町女満別西3条4-2-7,女満別西3条4-2-7,北海道/網走郡/大空町/女満別西三条/四丁目/２番,144.17232,43.91044,5,7
北海道,網走警察署,東藻琴,ヒガシモコト,駐在所,東藻琴駐在所,網走警察署東藻琴駐在所,0152-66-2810,993244,網走郡,大空町,15644,大空町東藻琴82-1,東藻琴82-1,北海道/網走郡/大空町/東藻琴,144.31868,43.81900,5,5
北海道,網走警察署,藻琴,モコト,駐在所,藻琴駐在所,網走警察署藻琴駐在所,0152-46-2417,903111,,網走市,12114,網走市字藻琴109,字藻琴109,北海道/網走市/藻琴,144.30986,43.96095,5,5
北海道,美幌警察署,福住,フクズミ,駐在所,福住駐在所,美幌警察署福住駐在所,0152-72-8154,920024,網走郡,美幌町,15431,美幌町字福住635-1,字福住635-1,北海道/網走郡/美幌町/福住,144.17542,43.77482,5,5
北海道,美幌警察署,上美幌,カミビホロ,駐在所,上美幌駐在所,美幌警察署上美幌駐在所,0152-73-2816,920171,網走郡,美幌町,15431,美幌町字美富416-11,字美富416-11,北海道/網走郡/美幌町/美富,144.10294,43.78757,5,5
北海道,美幌警察署,本岐,ホンキ,駐在所,本岐駐在所,美幌警察署本岐駐在所,0152-77-2230,920351,網走郡,津別町,15440,津別町字本岐4-11,字本岐4-11,北海道/網走郡/津別町/本岐,143.98433,43.64706,5,5
北海道,斜里警察署,中斜里,ナカシャリ,駐在所,中斜里駐在所,斜里警察署中斜里駐在所,0152-23-4860,994142,斜里郡,斜里町,15458,斜里町字中斜里22-51,字中斜里22-51,北海道/斜里郡/斜里町/中斜里/２２番地,144.65755,43.87259,5,7
北海道,斜里警察署,ウトロ,ウトロ,駐在所,ウトロ駐在所,斜里警察署ウトロ駐在所,0152-24-2010,994355,斜里郡,斜里町,15458,斜里町ウトロ東26,ウトロ東26,北海道/斜里郡/斜里町/ウトロ東,145.01369,44.07662,5,5
北海道,斜里警察署,清里,キヨサト,駐在所,清里駐在所,斜里警察署清里駐在所,0152-25-2010,994405,斜里郡,清里町,15466,清里町羽衣町43-8,羽衣町43-8,北海道/斜里郡/清里町/羽衣町,144.59294,43.83135,5,5
北海道,斜里警察署,札弦,サッツル,駐在所,札弦駐在所,斜里警察署札弦駐在所,0152-26-2050,994521,斜里郡,清里町,15466,清里町札弦町9-3,札弦町9-3,北海道/斜里郡/清里町/札弦町,144.52278,43.77460,5,5
北海道,斜里警察署,緑,ミドリ,駐在所,緑駐在所,斜里警察署緑駐在所,0152-27-5011,994525,斜里郡,清里町,15466,清里町緑町7,緑町7,北海道/斜里郡/清里町/緑町,144.50792,43.71439,5,5
北海道,斜里警察署,小清水,コシミズ,駐在所,小清水駐在所,斜里警察署小清水駐在所,0152-62-2810,993632,斜里郡,小清水町,15474,小清水町南町1-6-1,南町1-6-1,北海道/斜里郡/小清水町/南町/一丁目,144.47316,43.85091,5,6
北海道,斜里警察署,浜小清水,ハマコシミズ,駐在所,浜小清水駐在所,斜里警察署浜小清水駐在所,0152-64-2207,993452,斜里郡,小清水町,15474,小清水町字浜小清水41,字浜小清水41,北海道/斜里郡/小清水町/浜小清水,144.45164,43.93125,5,5
北海道,紋別警察署,小向,コムカイ,駐在所,小向駐在所,紋別警察署小向駐在所,0158-27-2006,996132,,紋別市,12190,紋別市小向193,小向193,北海道/紋別市/小向,143.42741,44.28688,5,5
北海道,紋別警察署,渚滑,ショコツ,駐在所,渚滑駐在所,紋別警察署渚滑駐在所,0158-23-2909,995171,,紋別市,12190,紋別市渚滑町4-104,渚滑町4-104,北海道/紋別市/渚滑町/四丁目/１０４番地,143.31410,44.37196,5,7
北海道,紋別警察署,上渚滑,カミショコツ,駐在所,上渚滑駐在所,紋別警察署上渚滑駐在所,0158-25-2535,995354,,紋別市,12190,紋別市上渚滑町4-121,上渚滑町4-121,北海道/紋別市/上渚滑町/四丁目,143.26003,44.24463,5,6
北海道,紋別警察署,滝上,タキノウエ,駐在所,滝上駐在所,紋別警察署滝上駐在所,0158-29-2019,995600,紋別郡,滝上町,15601,滝上町字滝ノ上市街地3条通2-20,字滝ノ上市街地3条通2-20,北海道/紋別郡/滝上町/滝ノ上市街地三条通/二丁目,143.07880,44.19282,5,6
北海道,興部警察署,沙留,サルル,駐在所,沙留駐在所,興部警察署沙留駐在所,0158-83-2010,981941,紋別郡,興部町,15610,興部町字沙留405-5,字沙留405-5,北海道/紋別郡/興部町/沙留/４０５番地,143.22043,44.43446,5,7
北海道,興部警察署,雄武,オウム,駐在所,雄武駐在所,興部警察署雄武駐在所,0158-84-2744,981702,紋別郡,雄武町,15636,雄武町字雄武1022,字雄武1022,北海道/紋別郡/雄武町/雄武,142.95181,44.58480,5,5
北海道,興部警察署,幌内,ホロナイ,駐在所,幌内駐在所,興部警察署幌内駐在所,0158-86-2055,981821,紋別郡,雄武町,15636,雄武町字幌内371,字幌内371,北海道/紋別郡/雄武町/幌内,142.86559,44.62320,5,5
北海道,興部警察署,西興部,ニシオコッペ,駐在所,西興部駐在所,興部警察署西興部駐在所,0158-87-2408,981501,紋別郡,西興部村,15628,西興部村字西興部56,字西興部56,北海道/紋別郡/西興部村/西興部,142.94926,44.32861,5,5
北海道,興部警察署,上興部,カミオコッペ,駐在所,上興部駐在所,興部警察署上興部駐在所,0158-87-2606,981421,紋別郡,西興部村,15628,西興部村字上興部47-1,字上興部47-1,北海道/紋別郡/西興部村/上興部,142.85884,44.36069,5,5
青森県,青森警察署,平内,ヒラナイ,交番,平内交番,青森警察署平内交番,017-755-3110,393321,東津軽郡,平内町,23019,平内町大字小湊字家ノ下204-1,大字小湊字家ノ下204-1,青森県/東津軽郡/平内町/大字小湊/家ノ下/２０４番地,140.95955,40.92408,5,7
青森県,青森警察署,青森駅前,アオモリエキマエ,交番,青森駅前交番,青森警察署青森駅前交番,017-722-8431,300801,,青森市,22012,青森市新町1-2-3,新町1-2-3,青森県/青森市/新町/一丁目/２番,140.73488,40.82744,5,7
青森県,青森警察署,中央,チュウオウ,交番,中央交番,青森警察署中央交番,017-777-3743,300802,,青森市,22012,青森市本町1-1-33,本町1-1-33,青森県/青森市/本町/一丁目/１番,140.74660,40.82464,5,7
青森県,青森警察署,堤町,ツツミマチ,交番,堤町交番,青森警察署堤町交番,017-734-1373,300812,,青森市,22012,青森市堤町1-13,堤町1-13,青森県/青森市/堤町/一丁目,140.75836,40.82474,5,6
青森県,青森警察署,西部,セイブ,交番,西部交番,青森警察署西部交番,017-781-5248,380002,,青森市,22012,青森市沖館1-2-1,沖館1-2-1,青森県/青森市/沖館/一丁目/２番,140.72368,40.83326,5,7
青森県,青森警察署,浪打,ナミウチ,交番,浪打交番,青森警察署浪打交番,017-741-3222,300902,,青森市,22012,青森市合浦2-102-9,合浦2-102-9,青森県/青森市/合浦/二丁目,140.77802,40.82954,5,6
青森県,青森警察署,勝田,カッタ,交番,勝田交番,青森警察署勝田交番,017-734-7042,300821,,青森市,22012,青森市勝田1-15-9,勝田1-15-9,青森県/青森市/勝田/一丁目/１５番,140.75484,40.81485,5,7
青森県,青森警察署,筒井,ツツイ,交番,筒井交番,青森警察署筒井交番,017-742-5599,300945,,青森市,22012,青森市桜川8-1-3-1,桜川8-1-3-1,青森県/青森市/桜川/八丁目/１番,140.76793,40.80875,5,7
青森県,青森警察署,みなみ,ミナミ,交番,みなみ交番,青森警察署みなみ交番,017-777-4036,300845,,青森市,22012,青森市緑2-6-11,緑2-6-11,青森県/青森市/緑/二丁目/６番,140.74631,40.80687,5,7
青森県,青森警察署,新城,シンジョウ,交番,新城交番,青森警察署新城交番,017-788-0324,380042,,青森市,22012,青森市大字新城字平岡174-35,大字新城字平岡174-35,青森県/青森市/大字新城/平岡/１７４番地,140.67604,40.82816,5,7
青森県,青森警察署,つくだ,ツクダ,交番,つくだ交番,青森警察署つくだ交番,017-742-4320,300964,,青森市,22012,青森市南佃2-1-1,南佃2-1-1,青森県/青森市/南佃/二丁目/１番,140.78200,40.81484,5,7
青森県,青森警察署,三内丸山,サンナイマルヤマ,交番,三内丸山交番,青森警察署三内丸山交番,017-766-1304,380024,,青森市,22012,青森市浪館前田3-22-11,浪館前田3-22-11,青森県/青森市/浪館前田/三丁目/２２番,140.71652,40.81039,5,7
青森県,青森警察署,八甲田,ハッコウダ,交番,八甲田交番,青森警察署八甲田交番,017-738-0421,300943,,青森市,22012,青森市幸畑2-6-7,幸畑2-6-7,青森県/青森市/幸畑/二丁目/６番,140.78224,40.78498,5,7
青森県,八戸警察署,八戸駅前,ハチノヘエキマエ,交番,八戸駅前交番,八戸警察署八戸駅前交番,0178-27-2246,391101,,八戸市,22039,八戸市大字尻内町字館田2-2,大字尻内町字館田2-2,青森県/八戸市/大字尻内町/館田/２番地,141.42970,40.50848,5,7
青森県,八戸警察署,小中野,コナカノ,交番,小中野交番,八戸警察署小中野交番,0178-43-1233,310802,,八戸市,22039,八戸市小中野7-10-5,小中野7-10-5,青森県/八戸市/小中野/七丁目/１０番,141.52100,40.52131,5,7
青森県,八戸警察署,中央,チュウオウ,交番,中央交番,八戸警察署中央交番,0178-24-3011,310075,,八戸市,22039,八戸市内丸1-1-2,内丸1-1-2,青森県/八戸市/内丸/一丁目/１番,141.48787,40.51361,5,7
青森県,八戸警察署,類家,ルイケ,交番,類家交番,八戸警察署類家交番,0178-24-3012,310001,,八戸市,22039,八戸市類家3-1-5,類家3-1-5,青森県/八戸市/類家/三丁目/１番,141.50269,40.51040,5,7
青森県,八戸警察署,売市,ウルイチ,交番,売市交番,八戸警察署売市交番,0178-45-2661,310073,,八戸市,22039,八戸市売市2-3-10,売市2-3-10,青森県/八戸市/売市/二丁目/３番,141.47528,40.50839,5,7
青森県,八戸警察署,みなと白銀,ミナトシロガネ,交番,みなと白銀交番,八戸警察署みなと白銀交番,0178-33-3263,310822,,八戸市,22039,八戸市大字白銀町字左新井田道1-4,大字白銀町字左新井田道1-4,青森県/八戸市/大字白銀町/左新井田道/１番地,141.53868,40.51656,5,7
青森県,八戸警察署,下長,シモナガ,交番,下長交番,八戸警察署下長交番,0178-28-2010,391164,,八戸市,22039,八戸市下長2-2-28,下長2-2-28,青森県/八戸市/下長/二丁目/２番,141.47598,40.53228,5,7
青森県,八戸警察署,階上,ハシカミ,交番,階上交番,八戸警察署階上交番,0178-88-2022,391201,三戸郡,階上町,24465,階上町大字道仏字天当平1-357,大字道仏字天当平1-357,青森県/三戸郡/階上町/大字道仏/天当平/１番地,141.61961,40.45079,5,7
青森県,弘前警察署,弘前駅前,ヒロサキエキマエ,交番,弘前駅前交番,弘前警察署弘前駅前交番,0172-32-1019,368003,,弘前市,22021,弘前市大字駅前町17-6,大字駅前町17-6,青森県/弘前市/駅前町/１７番,140.48325,40.59938,5,7
青森県,弘前警察署,中央,チュウオウ,交番,中央交番,弘前警察署中央交番,0172-32-3925,368355,,弘前市,22021,弘前市大字元寺町1-5,大字元寺町1-5,青森県/弘前市/元寺町/１番地,140.46875,40.60323,5,7
青森県,弘前警察署,桝形,マスガタ,交番,桝形交番,弘前警察署桝形交番,0172-33-2315,368155,,弘前市,22021,弘前市大字中野1-1-1,大字中野1-1-1,青森県/弘前市/中野/一丁目/１番,140.47420,40.58403,5,7
青森県,弘前警察署,城東,ジョウトウ,交番,城東交番,弘前警察署城東交番,0172-27-0110,368093,,弘前市,22021,弘前市大字城東中央5-5-1,大字城東中央5-5-1,青森県/弘前市/城東中央/五丁目/５番,140.49870,40.60332,5,7
青森県,弘前警察署,南,ミナミ,交番,南交番,弘前警察署南交番,0172-87-1434,368164,,弘前市,22021,弘前市大字泉野2-1-4,大字泉野2-1-4,青森県/弘前市/泉野/二丁目/１番,140.49265,40.57436,5,7
青森県,弘前警察署,板柳,イタヤナギ,交番,板柳交番,弘前警察署板柳交番,0172-73-3151,038-3645,北津軽郡,板柳町,23817,板柳町大字辻??字福岡67-25,大字辻??字福岡67-25,青森県/北津軽郡/板柳町/大字辻,140.46284,40.69302,5,5
青森県,五所川原警察署,金木,カナギ,交番,金木交番,五所川原警察署金木交番,0173-53-2117,370202,,五所川原市,22055,五所川原市金木町芦野216-89,金木町芦野216-89,青森県/五所川原市/金木町,140.55191,40.92058,5,5
青森県,五所川原警察署,五所川原駅前,ゴショガワラエキマエ,交番,五所川原駅前交番,五所川原警察署五所川原駅前交番,0173-34-9746,370052,,五所川原市,22055,五所川原市字東町9-5,字東町9-5,青森県/五所川原市/東町/９番地,140.44675,40.80877,5,7
青森県,五所川原警察署,エルムの街,エルムノマチ,交番,エルムの街交番,五所川原警察署エルムの街交番,0173-35-0719,370004,,五所川原市,22055,五所川原市大字唐笠柳字藤巻517-1,大字唐笠柳字藤巻517-1,青森県/五所川原市/大字唐笠柳/藤巻/５１７番地,140.45299,40.80023,5,7
青森県,五所川原警察署,鶴田,ツルタ,交番,鶴田交番,五所川原警察署鶴田交番,0173-22-2539,383503,北津軽郡,鶴田町,23841,鶴田町大字鶴田字相原71-9,大字鶴田字相原71-9,青森県/北津軽郡/鶴田町/大字鶴田/相原,140.43867,40.77287,5,6
青森県,黒石警察署,ちとせ,チトセ,交番,ちとせ交番,黒石警察署ちとせ交番,0172-52-4810,360356,,黒石市,22047,黒石市ちとせ1-151-3,ちとせ1-151-3,青森県/黒石市/ちとせ/一丁目/１５１番地,140.59746,40.63702,5,7
青森県,黒石警察署,平賀,ヒラカ,交番,平賀交番,黒石警察署平賀交番,0172-44-3048,360104,,平川市,22101,平川市柏木町藤山29-22,柏木町藤山29-22,青森県/平川市/柏木町/藤山/２９番地,140.56448,40.58385,5,7
青森県,黒石警察署,大鰐,オオワニ,交番,大鰐交番,黒石警察署大鰐交番,0172-48-2241,380212,南津軽郡,大鰐町,23621,大鰐町大字蔵館字道添7,大字蔵館字道添7,青森県/南津軽郡/大鰐町/大字蔵館/道添/７番地,140.58240,40.51983,5,7
青森県,十和田警察署,中央,チュウオウ,交番,中央交番,十和田警察署中央交番,0176-23-3566,340082,,十和田市,22063,十和田市西二番町4-6,西二番町4-6,青森県/十和田市/西二番町/４番,141.21075,40.61523,5,7
青森県,十和田警察署,東,ヒガシ,交番,東交番,十和田警察署東交番,0176-22-4346,340015,,十和田市,22063,十和田市東二十二番町23-34,東二十二番町23-34,青森県/十和田市/東二十二番町/２３番,141.23303,40.62512,5,7
青森県,三沢警察署,中央,チュウオウ,交番,中央交番,三沢警察署中央交番,0176-53-5311,330001,,三沢市,22071,三沢市中央町4-16,中央町4-16,青森県/三沢市/中央町/四丁目,141.36389,40.67942,5,6
青森県,三沢警察署,おいらせ,オイラセ,交番,おいらせ交番,三沢警察署おいらせ交番,0178-56-3110,392127,上北郡,おいらせ町,24121,おいらせ町木崎20-6,木崎20-6,青森県/上北郡/おいらせ町/木崎/２０番地,141.41360,40.59979,5,7
